DR_NO,AREA,AREA NAME,Rpt Dist No,LOCATION,Cross Street,LAT,LON,,,,,,,,,,,,,,,
210612940,6,Hollywood,639,1700 N KINGSLEY DR,,34.1018,-118.3035,,,,,,,,,,,,,,,
210813305,8,West LA,832,11600 MAYFIELD AV,,34.0531,-118.4618,,,,,,,,,,,,,,,
210814817,8,West LA,817,1000 BROXTON AV,,34.0621,-118.4467,,,,,,,,,,,,,,,
210607958,6,Hollywood,667,6000 FOUNTAIN AV,,34.0944,-118.3212,,,,,,,,,,,,,,,
211413670,14,Pacific,1483,8500 GULANA AV,,33.9589,-118.4346,,,,,,,,,,,,,,,
210210362,2,Rampart,205,700 N VENDOME ST,,34.0794,-118.2768,,,,,,,,,,,,,,,
210915216,9,Van Nuys,914,15200 SHERMAN WY,,34.2011,-118.4642,,,,,,,,,,,,,,,
211116995,11,Northeast,1173,1900 N ALVARADO ST,,34.0884,-118.2569,,,,,,,,,,,,,,,
211414323,14,Pacific,1477,7800 TRUXTON AV,,33.9667,-118.3934,,,,,,,,,,,,,,,
211406664,14,Pacific,1427,11000 ROSE AV,,34.0224,-118.4216,,,,,,,,,,,,,,,
210413250,4,Hollenbeck,466,1ST,MOTT,34.0421,-118.206,,,,,,,,,,,,,,,
210804886,8,West LA,858,1600 S CREST DR,,34.0496,-118.3875,,,,,,,,,,,,,,,
210319047,3,Southwest,327,2600 ORCHARD AV,,34.0303,-118.2874,,,,,,,,,,,,,,,
210316156,3,Southwest,315,2200 W 23RD ST,,34.036,-118.3155,,,,,,,,,,,,,,,
210319082,3,Southwest,358,1000 W 34TH ST,,34.024,-118.2869,,,,,,,,,,,,,,,
211410980,14,Pacific,1456,4200 LINDBLADE DR,,33.9952,-118.4211,,,,,,,,,,,,,,,
210315364,3,Southwest,328,700 W 27TH ST,,34.0281,-118.2788,,,,,,,,,,,,,,,
210709342,7,Wilshire,727,100 N HIGHLAND AV,,34.0736,-118.3385,,,,,,,,,,,,,,,
210816650,8,West LA,851,1500 S BUNDY DR,,34.0402,-118.4629,,,,,,,,,,,,,,,
212018422,20,Olympic,2033,600 S WESTERN AV,,34.0568,-118.3091,,,,,,,,,,,,,,,
210315558,3,Southwest,392,3200 W 48TH ST,,34,-118.3282,,,,,,,,,,,,,,,
210815872,8,West LA,841,1300 S CARMELINA AV,,34.0398,-118.4673,,,,,,,,,,,,,,,
210110476,1,Central,157,500 S SAN PEDRO ST,,34.0438,-118.2441,,,,,,,,,,,,,,,
211706877,17,Devonshire,1752,9900 LURLINE AV,,34.2536,-118.5913,,,,,,,,,,,,,,,
210811169,8,West LA,812,300 N KENTER AV,,34.0635,-118.4819,,,,,,,,,,,,,,,
211906339,19,Mission,1985,14600 PARTHENIA ST,,34.2271,-118.4503,,,,,,,,,,,,,,,
210112731,1,Central,171,800 W OLYMPIC BL,,34.045,-118.264,,,,,,,,,,,,,,,
210316634,3,Southwest,338,1200 W 30TH ST,,34.0274,-118.29,,,,,,,,,,,,,,,
211412967,14,Pacific,1467,5900 W CENTER DR,,33.9751,-118.3873,,,,,,,,,,,,,,,
210317919,3,Southwest,325,2800 MENLO AV,,34.0313,-118.2903,,,,,,,,,,,,,,,
212116620,21,Topanga,2148,6800 DELCO AV,,34.1941,-118.5779,,,,,,,,,,,,,,,
211506935,15,N Hollywood,1548,11100 CHANDLER BL,,34.1681,-118.3725,,,,,,,,,,,,,,,
210110141,1,Central,139,900 E 3RD ST,,34.0459,-118.2352,,,,,,,,,,,,,,,
211408598,14,Pacific,1409,3600 CARDIFF AV,,34.0272,-118.3977,,,,,,,,,,,,,,,
210316673,3,Southwest,398,600 W 40TH PL,,34.0106,-118.2842,,,,,,,,,,,,,,,
211412435,14,Pacific,1444,3200 CARTER AV,,33.9868,-118.4451,,,,,,,,,,,,,,,
211409274,14,Pacific,1407,3600 DUNN DR,,34.0252,-118.4014,,,,,,,,,,,,,,,
210805394,8,West LA,832,11700 KIOWA AV,,34.0498,-118.4641,,,,,,,,,,,,,,,
211314250,13,Newton,1361,200 W 45TH ST,,34.0029,-118.2762,,,,,,,,,,,,,,,
211012837,10,West Valley,1033,6200 BECKFORD AV,,34.1827,-118.5514,,,,,,,,,,,,,,,
212013308,20,Olympic,2027,3500 W 6TH ST,,34.0636,-118.2992,,,,,,,,,,,,,,,
211411815,14,Pacific,1426,3400 SAWTELLE BL,,34.0207,-118.4271,,,,,,,,,,,,,,,
210619950,6,Hollywood,668,5600 LEXINGTON AV,,34.0928,-118.3132,,,,,,,,,,,,,,,
211417601,14,Pacific,1411,OCEAN FRONT WK,OZONE,33.9952,-118.4811,,,,,,,,,,,,,,,
211004515,10,West Valley,1039,6700 WOODLEY AV,,34.1924,-118.4837,,,,,,,,,,,,,,,
210315319,3,Southwest,325,1400 W 28TH ST,,34.0296,-118.2959,,,,,,,,,,,,,,,
211510539,15,N Hollywood,1548,5400 FAIR AV,,34.1681,-118.3743,,,,,,,,,,,,,,,
210813403,8,West LA,832,11700 MAYFIELD AV,,0,0,,,,,,,,,,,,,,,
211107789,11,Northeast,1132,2800 WAVERLY DR,,34.1084,-118.2639,,,,,,,,,,,,,,,
220304052,3,Southwest,357,3500 S BUDLONG AV,,34.0242,-118.2959,,,,,,,,,,,,,,,
212018430,20,Olympic,2019,100 S VIRGIL AV,,34.0732,-118.2868,,,,,,,,,,,,,,,
210312177,3,Southwest,356,3700 S WESTERN AV,,34.0208,-118.3089,,,,,,,,,,,,,,,
211414349,14,Pacific,1452,3100 VIA DOLCE,,33.979,-118.4621,,,,,,,,,,,,,,,
211311654,13,Newton,1362,400 E 47TH ST,,34.0007,-118.2696,,,,,,,,,,,,,,,
212011135,20,Olympic,2024,3700 W 6TH ST,,34.0636,-118.3041,,,,,,,,,,,,,,,
220805328,8,West LA,841,1200 ARMACOST AV,,34.0423,-118.4656,,,,,,,,,,,,,,,
210609995,6,Hollywood,643,7200 HOLLYWOOD BL,,34.1016,-118.3471,,,,,,,,,,,,,,,
211410028,14,Pacific,1406,3700 KEYSTONE AV,,34.0201,-118.4068,,,,,,,,,,,,,,,
210320803,3,Southwest,318,1200 W 22ND ST,,34.036,-118.2849,,,,,,,,,,,,,,,
210805900,8,West LA,841,1300 S CARMELINA AV,,34.0398,-118.4673,,,,,,,,,,,,,,,
211413433,14,Pacific,1472,6700 ESPLANADE ST,,33.9593,-118.4495,,,,,,,,,,,,,,,
212007120,20,Olympic,2081,ST ANDREWS,18TH,34.0418,-118.3134,,,,,,,,,,,,,,,
210315949,3,Southwest,327,1200 W ADAMS BL,,34.0328,-118.2865,,,,,,,,,,,,,,,
211016073,10,West Valley,1061,19800 VENTURA BL,,34.1724,-118.5645,,,,,,,,,,,,,,,
210712988,7,Wilshire,739,300 S ARDEN BL,,34.0671,-118.3259,,,,,,,,,,,,,,,
210807943,8,West LA,833,10900 ASHTON AV,,34.0577,-118.4438,,,,,,,,,,,,,,,
212008504,20,Olympic,2022,WESTERN AV,WILSHIRE BL,34.0617,-118.3091,,,,,,,,,,,,,,,
211509576,15,N Hollywood,1549,LANKERSHIM,CHANDLER,34.1689,-118.3774,,,,,,,,,,,,,,,
211714071,17,Devonshire,1795,17600 RAYMER ST,,34.2264,-118.5178,,,,,,,,,,,,,,,
211414651,14,Pacific,1467,5900 W CENTER DR,,33.9751,-118.3873,,,,,,,,,,,,,,,
210809466,8,West LA,881,PICO BL,CENTINELA AV,34.0281,-118.4528,,,,,,,,,,,,,,,
210121006,1,Central,139,900 E 3RD ST,,34.0459,-118.2352,,,,,,,,,,,,,,,
210804478,8,West LA,895,3200 CLUB DR,,34.0319,-118.4028,,,,,,,,,,,,,,,
211518096,15,N Hollywood,1522,13100 WELBY WY,,34.1928,-118.4209,,,,,,,,,,,,,,,
210114117,1,Central,135,200 S MAIN ST,,34.0506,-118.2449,,,,,,,,,,,,,,,
211415714,14,Pacific,1432,600 MILWOOD AV,,33.9908,-118.4647,,,,,,,,,,,,,,,
211104989,11,Northeast,1152,4400 CAMERO AV,,34.1009,-118.2849,,,,,,,,,,,,,,,
210120154,1,Central,161,1000 W 8TH ST,,34.0487,-118.2627,,,,,,,,,,,,,,,
211412978,14,Pacific,1432,900 MILWOOD AV,,33.9959,-118.4611,,,,,,,,,,,,,,,
211408061,14,Pacific,1407,3500 DUNN DR,,34.0273,-118.4029,,,,,,,,,,,,,,,
210710854,7,Wilshire,721,400 S LA CIENEGA BL,,34.0702,-118.3764,,,,,,,,,,,,,,,
211422010,14,Pacific,1438,3700 OVERLAND AV,,34.0199,-118.4125,,,,,,,,,,,,,,,
211409272,14,Pacific,1464,13000 VILLOSA PL,,33.9735,-118.4256,,,,,,,,,,,,,,,
210117297,1,Central,151,500 S FIGUEROA ST,,34.0521,-118.2573,,,,,,,,,,,,,,,
210316034,3,Southwest,318,1200 W 23RD ST,,34.0352,-118.284,,,,,,,,,,,,,,,
210807154,8,West LA,884,2200 MALCOLM AV,,34.0435,-118.4287,,,,,,,,,,,,,,,
210917902,9,Van Nuys,923,6400 VAN NUYS BL,,34.1903,-118.4574,,,,,,,,,,,,,,,
210807700,8,West LA,851,11900 IDAHO AV,,34.039,-118.461,,,,,,,,,,,,,,,
211417830,14,Pacific,1412,200 S MAIN ST,,33.9974,-118.479,,,,,,,,,,,,,,,
210120195,1,Central,118,900 N BROADWAY,,34.064,-118.2375,,,,,,,,,,,,,,,
210107747,1,Central,119,800 N ALAMEDA ST,,34.0561,-118.2375,,,,,,,,,,,,,,,
210108481,1,Central,162,800 S FIGUEROA ST,,34.0476,-118.2615,,,,,,,,,,,,,,,
211421770,14,Pacific,1454,13100 MINDINAO WY,,33.9832,-118.4327,,,,,,,,,,,,,,,
210807530,8,West LA,836,SANTA MONICA BL,PROSSER AV,34.0536,-118.4293,,,,,,,,,,,,,,,
210204290,2,Rampart,237,100 WITMER ST,,34.0621,-118.2608,,,,,,,,,,,,,,,
211410445,14,Pacific,1464,13000 VILLOSA PL,,33.9735,-118.4256,,,,,,,,,,,,,,,
210113567,1,Central,138,200 S LOS ANGELES ST,,34.0485,-118.2448,,,,,,,,,,,,,,,
211421076,14,Pacific,1413,1200 ELECTRIC AV,,33.9919,-118.4686,,,,,,,,,,,,,,,
210108083,1,Central,182,1200 S HOPE ST,,34.0406,-118.2646,,,,,,,,,,,,,,,
211505936,15,N Hollywood,1543,5300 HERMITAGE AV,,34.1667,-118.4004,,,,,,,,,,,,,,,
211406209,14,Pacific,1463,5300 PLAYA VISTA DR,,33.9749,-118.4281,,,,,,,,,,,,,,,
210119197,1,Central,152,7TH,FLOWER,34.0487,-118.2588,,,,,,,,,,,,,,,
220304888,3,Southwest,338,3000 MCCLINTOCK AV,,34.027,-118.2858,,,,,,,,,,,,,,,
210810128,8,West LA,881,11600 W OLYMPIC BL,,34.0353,-118.446,,,,,,,,,,,,,,,
210111319,1,Central,174,7TH,SPRING,34.0445,-118.2523,,,,,,,,,,,,,,,
211418693,14,Pacific,1454,13400 MAXELLA AV,,33.987,-118.4407,,,,,,,,,,,,,,,
211416176,14,Pacific,1456,11700 AVON WY,,33.9969,-118.4179,,,,,,,,,,,,,,,
210315994,3,Southwest,327,2600 ELLENDALE PL,,34.0323,-118.2888,,,,,,,,,,,,,,,
211420271,14,Pacific,1406,10400 VENICE BL,,34.0201,-118.4044,,,,,,,,,,,,,,,
212112215,21,Topanga,2136,7200 VASSAR AV,,34.201,-118.6044,,,,,,,,,,,,,,,
210109224,1,Central,185,1000 S BROADWAY,,34.0406,-118.2578,,,,,,,,,,,,,,,
210809505,8,West LA,853,SANTA MONICA,FEDERAL,34.0449,-118.4535,,,,,,,,,,,,,,,
212014964,20,Olympic,2019,200 N VERMONT AV,,34.075,-118.2917,,,,,,,,,,,,,,,
211510950,15,N Hollywood,1583,4200 LAUREL CANYON BL,,34.1467,-118.3964,,,,,,,,,,,,,,,
210814342,8,West LA,858,1500 S ROBERTSON BL,,34.0521,-118.3864,,,,,,,,,,,,,,,
210711714,7,Wilshire,722,8300 BEVERLY BL,,34.0761,-118.3706,,,,,,,,,,,,,,,
210119328,1,Central,153,500 S HILL ST,,34.0486,-118.2519,,,,,,,,,,,,,,,
210910337,9,Van Nuys,931,6100 N SEPULVEDA BL,,34.1841,-118.4693,,,,,,,,,,,,,,,
210315702,3,Southwest,356,1400 W 37TH PL,,34.02,-118.3029,,,,,,,,,,,,,,,
211511133,15,N Hollywood,1586,LANKERSHIM,CAMPO DE CAH,34.1425,-118.3643,,,,,,,,,,,,,,,
210909915,9,Van Nuys,971,15200 LA MAIDA ST,,34.1585,-118.4656,,,,,,,,,,,,,,,
220804444,8,West LA,828,10800 LINDBROOK DR,,34.0609,-118.4401,,,,,,,,,,,,,,,
211516917,15,N Hollywood,1503,6600 LAUREL CANYON BL,,34.2003,-118.4002,,,,,,,,,,,,,,,
210316749,3,Southwest,328,2600 PORTLAND ST,,34.0301,-118.2826,,,,,,,,,,,,,,,
211105063,11,Northeast,1145,GLENDALE,FLETCHER,34.1045,-118.2592,,,,,,,,,,,,,,,
210316350,3,Southwest,327,1100 W 29TH ST,,34.0305,-118.2865,,,,,,,,,,,,,,,
212117526,21,Topanga,2138,20600 VALERIO ST,,34.2047,-118.5826,,,,,,,,,,,,,,,
210809076,8,West LA,898,9000 NATIONAL BL,,34.0364,-118.3872,,,,,,,,,,,,,,,
210108403,1,Central,162,800 S HOPE ST,,34.046,-118.2595,,,,,,,,,,,,,,,
210109002,1,Central,176,800 SANTEE ST,,34.0401,-118.2533,,,,,,,,,,,,,,,
210611200,6,Hollywood,638,1800 N GRAMERCY PL,,34.1036,-118.3123,,,,,,,,,,,,,,,
212014896,20,Olympic,2024,600 S ARDMORE AV,,34.0617,-118.3016,,,,,,,,,,,,,,,
211414648,14,Pacific,1452,00 JIB ST,,33.974,-118.462,,,,,,,,,,,,,,,
212018793,20,Olympic,2038,3100 WILSHIRE BL,,34.0618,-118.2894,,,,,,,,,,,,,,,
210305276,3,Southwest,311,5400 BLACKWELDER ST,,34.0282,-118.3623,,,,,,,,,,,,,,,
211509574,15,N Hollywood,1549,LANKERSHIM,CHANDLER,34.1689,-118.3774,,,,,,,,,,,,,,,
210110686,1,Central,129,700 E TEMPLE ST,,34.05,-118.2318,,,,,,,,,,,,,,,
210808170,8,West LA,882,11200 MISSISSIPPI AV,,34.0399,-118.442,,,,,,,,,,,,,,,
210317057,3,Southwest,356,3600 HALLDALE AV,,34.021,-118.3029,,,,,,,,,,,,,,,
210813304,8,West LA,852,1500 GRANVILLE AV,,34.0426,-118.458,,,,,,,,,,,,,,,
210109639,1,Central,182,1200 S HOPE ST,,34.0406,-118.2646,,,,,,,,,,,,,,,
212012685,20,Olympic,2019,3400 W 3RD ST,,34.0728,-118.2878,,,,,,,,,,,,,,,
221704292,17,Devonshire,1764,19500 NORDHOFF ST,,34.2355,-118.5574,,,,,,,,,,,,,,,
210814321,8,West LA,859,8500 AIRDROME ST,,34.0471,-118.3762,,,,,,,,,,,,,,,
210110576,1,Central,128,1ST ST,CENTRAL AV,34.0492,-118.2391,,,,,,,,,,,,,,,
211411622,14,Pacific,1411,OCEAN FRONT WK,PARK,33.9912,-118.4775,,,,,,,,,,,,,,,
212112476,21,Topanga,2173,23200 GONZALES DR,,34.1643,-118.6344,,,,,,,,,,,,,,,
211422911,14,Pacific,1415,1000 DOREEN PL,,34.0002,-118.4601,,,,,,,,,,,,,,,
211310948,13,Newton,1309,CHANNING ST,E OLYMPIC BL,34.0273,-118.238,,,,,,,,,,,,,,,
211418695,14,Pacific,1445,12700 CASWELL AV,,33.9976,-118.4384,,,,,,,,,,,,,,,
210110131,1,Central,182,500 W OLYMPIC BL,,34.043,-118.2606,,,,,,,,,,,,,,,
210815264,8,West LA,834,10700 WILKINS AV,,34.0561,-118.4354,,,,,,,,,,,,,,,
211513866,15,N Hollywood,1555,11200 OTSEGO ST,,34.163,-118.3757,,,,,,,,,,,,,,,
211308790,13,Newton,1321,S GRAND AV,S OLIVE ST,34.0289,-118.2686,,,,,,,,,,,,,,,
210107463,1,Central,163,800 S BROADWAY,,34.0434,-118.255,,,,,,,,,,,,,,,
210712007,7,Wilshire,738,400 S MCCADDEN PL,,34.0649,-118.3372,,,,,,,,,,,,,,,
210604543,6,Hollywood,644,1400 N FORMOSA AV,,34.0962,-118.3462,,,,,,,,,,,,,,,
211415721,14,Pacific,1407,3500 JASMINE AV,,34.026,-118.4052,,,,,,,,,,,,,,,
212007318,20,Olympic,2011,100 S MANHATTAN PL,,34.0711,-118.3102,,,,,,,,,,,,,,,
220804487,8,West LA,855,1600 SELBY AV,,34.0517,-118.442,,,,,,,,,,,,,,,
210818060,8,West LA,833,10900 OHIO AV,,34.0565,-118.4427,,,,,,,,,,,,,,,
210118434,1,Central,163,800 S BROADWAY,,34.0434,-118.255,,,,,,,,,,,,,,,
210713288,7,Wilshire,736,400 S DETROIT ST,,34.0649,-118.3451,,,,,,,,,,,,,,,
211418529,14,Pacific,1414,800 BROADWAY,,33.9969,-118.4641,,,,,,,,,,,,,,,
210617757,6,Hollywood,663,1200 N SYCAMORE AV,,34.0926,-118.3428,,,,,,,,,,,,,,,
210615735,6,Hollywood,656,6000 ROMAINE ST,,34.0889,-118.3244,,,,,,,,,,,,,,,
211910984,19,Mission,1984,14800 ROSCOE BL,,34.2265,-118.4565,,,,,,,,,,,,,,,
210910826,9,Van Nuys,966,13600 HUSTON ST,,34.1595,-118.4294,,,,,,,,,,,,,,,
210615995,6,Hollywood,636,HIGHLAND,JOHNY GRANT,34.1034,-118.3325,,,,,,,,,,,,,,,
211516646,15,N Hollywood,1545,4900 MORELLA AV,,34.1595,-118.39,,,,,,,,,,,,,,,
210116128,1,Central,182,1200 S HILL ST,,34.042,-118.2625,,,,,,,,,,,,,,,
210808632,8,West LA,842,1200 S WESTGATE AV,,34.047,-118.4632,,,,,,,,,,,,,,,
210416290,4,Hollenbeck,421,300 S AVENUE 20,,34.0703,-118.2186,,,,,,,,,,,,,,,
210319072,3,Southwest,319,00 SAINT JAMES PK,,34.0317,-118.2769,,,,,,,,,,,,,,,
210808254,8,West LA,835,2000 S BENTLEY AV,,34.0421,-118.4383,,,,,,,,,,,,,,,
210906962,9,Van Nuys,933,VAN NUYS BL,ORANGE LINE,34.1806,-118.4487,,,,,,,,,,,,,,,
211418500,14,Pacific,1445,12600 WASHINGTON PL,,33.9989,-118.4369,,,,,,,,,,,,,,,
211415693,14,Pacific,1415,1000 ELKGROVE AV,,34,-118.4598,,,,,,,,,,,,,,,
210116823,1,Central,182,1200 S HILL ST,,34.042,-118.2625,,,,,,,,,,,,,,,
221405253,14,Pacific,1425,3100 S BARRINGTON AV,,34.0216,-118.4378,,,,,,,,,,,,,,,
220305093,3,Southwest,325,2800 ELLENDALE PL,,34.0307,-118.2923,,,,,,,,,,,,,,,
211507686,15,N Hollywood,1583,4000 RADFORD AV,,34.1442,-118.3928,,,,,,,,,,,,,,,
210815325,8,West LA,841,1300 S BUNDY DR,,34.0425,-118.4656,,,,,,,,,,,,,,,
211416528,14,Pacific,1491,12000 VISTA DEL MAR,,33.9355,-118.4386,,,,,,,,,,,,,,,
210810973,8,West LA,827,500 S BARRINGTON AV,,34.0604,-118.4684,,,,,,,,,,,,,,,
210814470,8,West LA,832,11600 GOSHEN AV,,34.0513,-118.4605,,,,,,,,,,,,,,,
210111262,1,Central,161,800 FRANCISCO ST,,34.0477,-118.2637,,,,,,,,,,,,,,,
212107274,21,Topanga,2185,22100 CLARENDON ST,,34.1696,-118.6102,,,,,,,,,,,,,,,
210706408,7,Wilshire,747,1000 S CITRUS AV,,34.0551,-118.3419,,,,,,,,,,,,,,,
210812783,8,West LA,851,11900 WALNUT LN,,34.0372,-118.4593,,,,,,,,,,,,,,,
212007873,20,Olympic,2056,1100 S NEW HAMPSHIRE AV,,34.0491,-118.2926,,,,,,,,,,,,,,,
210315957,3,Southwest,328,600 W 28TH ST,,34.0261,-118.2774,,,,,,,,,,,,,,,
210813767,8,West LA,847,2300 S BEVERLY GLEN BL,,34.0478,-118.4184,,,,,,,,,,,,,,,
212109941,21,Topanga,2157,20600 VANOWEN ST,,34.1938,-118.5824,,,,,,,,,,,,,,,
210708996,7,Wilshire,735,600 S DETROIT ST,,34.0636,-118.3451,,,,,,,,,,,,,,,
210805875,8,West LA,852,11700 IDAHO AV,,34.0425,-118.4552,,,,,,,,,,,,,,,
211410908,14,Pacific,1452,100 HURRICANE ST,,33.9754,-118.4623,,,,,,,,,,,,,,,
211413415,14,Pacific,1445,3900 BEETHOVEN ST,,33.9985,-118.4402,,,,,,,,,,,,,,,
210614279,6,Hollywood,656,1000 COLE AV,,34.0889,-118.3299,,,,,,,,,,,,,,,
210120683,1,Central,118,900 N BROADWAY,,34.064,-118.2375,,,,,,,,,,,,,,,
210120961,1,Central,119,800 N ALAMEDA ST,,34.0561,-118.2375,,,,,,,,,,,,,,,
211415415,14,Pacific,1451,3100 OCEAN FRONT WK,,33.9785,-118.4664,,,,,,,,,,,,,,,
210310091,3,Southwest,328,700 W 27TH ST,,34.0281,-118.2788,,,,,,,,,,,,,,,
211115098,11,Northeast,1133,3400 MADERA AV,,34.1147,-118.2594,,,,,,,,,,,,,,,
211709206,17,Devonshire,1757,16600 SEPTO ST,,34.2516,-118.4948,,,,,,,,,,,,,,,
211507260,15,N Hollywood,1567,LANKERSHIM BL,MAGNOLIA BL,34.1499,-118.3635,,,,,,,,,,,,,,,
210815650,8,West LA,859,1500 S SHENANDOAH ST,,34.0502,-118.3822,,,,,,,,,,,,,,,
220804274,8,West LA,881,1900 S BUNDY DR,,34.0353,-118.4571,,,,,,,,,,,,,,,
210310504,3,Southwest,338,3200 S HOOVER ST,,34.0268,-118.2896,,,,,,,,,,,,,,,
210216892,2,Rampart,269,1200 W 8TH ST,,34.0496,-118.2677,,,,,,,,,,,,,,,
210111628,1,Central,142,400 S HILL ST,,34.0519,-118.2531,,,,,,,,,,,,,,,
210914134,9,Van Nuys,904,14900 RAYMER ST,,34.2131,-118.4584,,,,,,,,,,,,,,,
211609711,16,Foothill,1682,8800 RINCON AV,,34.2287,-118.3987,,,,,,,,,,,,,,,
211514877,15,N Hollywood,1548,5300 LANKERSHIM BL,,34.167,-118.3759,,,,,,,,,,,,,,,
210307613,3,Southwest,313,4000 W 28TH ST,,34.0314,-118.3292,,,,,,,,,,,,,,,
210812790,8,West LA,859,1400 S SHENANDOAH ST,,34.0539,-118.3817,,,,,,,,,,,,,,,
210311640,3,Southwest,376,1400 W 38TH ST,,34.0174,-118.3024,,,,,,,,,,,,,,,
210706373,7,Wilshire,701,800 N HAYWORTH AV,,34.0855,-118.3627,,,,,,,,,,,,,,,
212117539,21,Topanga,2145,6700 GLADE AV,,34.1923,-118.6081,,,,,,,,,,,,,,,
211514805,15,N Hollywood,1555,MAGNOLIA,VINELAND,34.1649,-118.3705,,,,,,,,,,,,,,,
211706251,17,Devonshire,1701,SESNON BL,PORTER RANCH DR,34.2926,-118.5729,,,,,,,,,,,,,,,
210107742,1,Central,182,1200 S OLIVE ST,,34.0383,-118.2633,,,,,,,,,,,,,,,
211411945,14,Pacific,1483,8500 PERSHING DR,,33.9559,-118.4421,,,,,,,,,,,,,,,
220608157,6,Hollywood,647,1600 VINE ST,,34.0998,-118.3267,,,,,,,,,,,,,,,
210111093,1,Central,162,700 S OLIVE ST,,34.0462,-118.2559,,,,,,,,,,,,,,,
210109385,1,Central,119,800 N ALAMEDA ST,,34.0561,-118.2375,,,,,,,,,,,,,,,
210907975,9,Van Nuys,911,15400 SHERMAN WY,,34.2011,-118.4686,,,,,,,,,,,,,,,
210315814,3,Southwest,337,2900 S LA SALLE AV,,34.0273,-118.3053,,,,,,,,,,,,,,,
210111417,1,Central,182,900 S HOPE ST,,34.0448,-118.2606,,,,,,,,,,,,,,,
210613680,6,Hollywood,643,7200 FRANKLIN AV,,0,0,,,,,,,,,,,,,,,
210121334,1,Central,152,400 W 7TH ST,,34.0491,-118.2558,,,,,,,,,,,,,,,
210121271,1,Central,142,400 W 5TH ST,,34.0519,-118.2531,,,,,,,,,,,,,,,
211106706,11,Northeast,1126,5100 ALMADEN DR,,34.1239,-118.2005,,,,,,,,,,,,,,,
210807279,8,West LA,842,FEDERAL AV,WILSHIRE BL,34.0508,-118.4592,,,,,,,,,,,,,,,
210715847,7,Wilshire,762,1600 S LA CIENEGA BL,,34.0486,-118.3762,,,,,,,,,,,,,,,
210710331,7,Wilshire,745,5300 SAN VICENTE BL,,34.0522,-118.3494,,,,,,,,,,,,,,,
211318821,13,Newton,1321,300 W ADAMS BL,,34.0289,-118.2686,,,,,,,,,,,,,,,
210319085,3,Southwest,328,3300 S FIGUEROA ST,,34.0268,-118.2808,,,,,,,,,,,,,,,
211008891,10,West Valley,1078,4900 SWINTON AV,,34.1587,-118.4849,,,,,,,,,,,,,,,
212004507,20,Olympic,2055,900 FEDORA ST,,34.0482,-118.2979,,,,,,,,,,,,,,,
210309693,3,Southwest,333,2900 S VICTORIA AV,,34.0276,-118.3364,,,,,,,,,,,,,,,
210611196,6,Hollywood,676,700 LILLIAN WY,,34.0835,-118.3277,,,,,,,,,,,,,,,
211423598,14,Pacific,1444,13700 MARINA POINTE DR,,33.9849,-118.4445,,,,,,,,,,,,,,,
210715877,7,Wilshire,734,500 ALANDELE AV,,34.0668,-118.3573,,,,,,,,,,,,,,,
210710096,7,Wilshire,734,06200 W 3RD ST,,34.0708,-118.3563,,,,,,,,,,,,,,,
212015949,20,Olympic,2004,600 N HARVARD BL,,34.0799,-118.3068,,,,,,,,,,,,,,,
211410622,14,Pacific,1446,3900 INGLEWOOD BL,,34.0037,-118.427,,,,,,,,,,,,,,,
211314842,13,Newton,1343,900 E JEFFERSON BL,,34.0134,-118.2608,,,,,,,,,,,,,,,
210319050,3,Southwest,327,1100 W ADAMS BL,,34.0317,-118.284,,,,,,,,,,,,,,,
212005628,20,Olympic,2025,400 S KENMORE AV,,34.0672,-118.2985,,,,,,,,,,,,,,,
210810978,8,West LA,852,1600 S WESTGATE AV,,34.0397,-118.4569,,,,,,,,,,,,,,,
211712030,17,Devonshire,1745,10500 LINDLEY AV,,34.2609,-118.5273,,,,,,,,,,,,,,,
211416446,14,Pacific,1483,7200 W MANCHESTER AV,,33.9597,-118.4201,,,,,,,,,,,,,,,
210816551,8,West LA,848,1800 CENTURY PARK EAST,,34.0536,-118.4115,,,,,,,,,,,,,,,
211714137,17,Devonshire,1755,LASSEN,LINDLEY,34.25,-118.5273,,,,,,,,,,,,,,,
210812321,8,West LA,881,1800 BARRY AV,,34.0391,-118.4506,,,,,,,,,,,,,,,
211423235,14,Pacific,1402,2800 S BARRINGTON AV,,34.0239,-118.4396,,,,,,,,,,,,,,,
210204627,2,Rampart,275,BEACON,OLYMPIC,34.0497,-118.2754,,,,,,,,,,,,,,,
211416266,14,Pacific,1424,3400 MCLAUGHLIN AV,,34.0167,-118.4382,,,,,,,,,,,,,,,
210619690,6,Hollywood,647,SELMA,GOWER,34.0998,-118.3223,,,,,,,,,,,,,,,
210914268,9,Van Nuys,946,13800 OXNARD ST,,34.1794,-118.4334,,,,,,,,,,,,,,,
210714375,7,Wilshire,722,100 N LA CIENEGA BL,,34.0734,-118.3765,,,,,,,,,,,,,,,
211417394,14,Pacific,1468,4900 INGLEWOOD BL,,33.9907,-118.4126,,,,,,,,,,,,,,,
211908960,19,Mission,1904,13900 OLIVE VIEW DR,,34.3249,-118.4357,,,,,,,,,,,,,,,
210611587,6,Hollywood,621,8500 MULHOLLAND DR,,34.1214,-118.3857,,,,,,,,,,,,,,,
210505074,5,Harbor,506,1500 W CARSON ST,,33.8315,-118.3044,,,,,,,,,,,,,,,
210505071,5,Harbor,557,300 S PACIFIC AV,,33.7412,-118.2924,,,,,,,,,,,,,,,
210817627,8,West LA,842,11600 ROCHESTER AV,,34.047,-118.4567,,,,,,,,,,,,,,,
211406598,14,Pacific,1441,2800 BEACH AV,,33.9834,-118.4607,,,,,,,,,,,,,,,
210807799,8,West LA,835,1900 KELTON AV,,34.0456,-118.436,,,,,,,,,,,,,,,
210813648,8,West LA,853,1700 SAWTELLE BL,,34.0439,-118.4462,,,,,,,,,,,,,,,
210815862,8,West LA,835,1800 MIDVALE AV,,34.049,-118.4375,,,,,,,,,,,,,,,
210605863,6,Hollywood,663,6800 SANTA MONICA BL,,34.0907,-118.3393,,,,,,,,,,,,,,,
211420796,14,Pacific,1444,3200 CARTER AV,,33.9868,-118.4451,,,,,,,,,,,,,,,
212112893,21,Topanga,2143,6900 SEDAN AV,,34.1946,-118.6294,,,,,,,,,,,,,,,
210610896,6,Hollywood,645,6900 HOLLYWOOD BL,,34.1016,-118.3404,,,,,,,,,,,,,,,
211515164,15,N Hollywood,1548,5200 LANKERSHIM BL,,34.1649,-118.3746,,,,,,,,,,,,,,,
210319931,3,Southwest,356,1500 W 35TH PL,,34.0237,-118.3032,,,,,,,,,,,,,,,
210219364,2,Rampart,261,700 S CORONADO ST,,34.0584,-118.2824,,,,,,,,,,,,,,,
212009033,20,Olympic,2026,NEW HAMPSHIRE,6TH,34.0672,-118.2941,,,,,,,,,,,,,,,
210109514,1,Central,118,900 N BROADWAY,,34.064,-118.2375,,,,,,,,,,,,,,,
211421773,14,Pacific,1445,3800 FRANCES AV,,34.0015,-118.4363,,,,,,,,,,,,,,,
210816862,8,West LA,835,2000 S BENTLEY AV,,34.0421,-118.4383,,,,,,,,,,,,,,,
210806643,8,West LA,881,EXPOSITION,STONER,34.0328,-118.4483,,,,,,,,,,,,,,,
211408792,14,Pacific,1454,4300 GLENCOE AV,,33.9868,-118.4399,,,,,,,,,,,,,,,
210817890,8,West LA,839,10200 MISSOURI AV,,34.058,-118.4212,,,,,,,,,,,,,,,
210817327,8,West LA,829,1300 WOODRUFF AV,,34.0613,-118.428,,,,,,,,,,,,,,,
211421449,14,Pacific,1464,12700 W JEFFERSON BL,,33.9775,-118.4176,,,,,,,,,,,,,,,
210812433,8,West LA,881,1900 S BUNDY DR,,34.035,-118.4567,,,,,,,,,,,,,,,
211704936,17,Devonshire,1735,BALBOA BL,SAN FERNANDO MISSION BL,34.2721,-118.5022,,,,,,,,,,,,,,,
212017097,20,Olympic,2027,6TH,ALEXANDRIA,34.0636,-118.2979,,,,,,,,,,,,,,,
211413104,14,Pacific,1469,5400 ALVERN CI,,33.975,-118.3744,,,,,,,,,,,,,,,
210904462,9,Van Nuys,935,14100 FRIAR ST,,34.1857,-118.4443,,,,,,,,,,,,,,,
210307812,3,Southwest,328,700 W 27TH ST,,34.0281,-118.2788,,,,,,,,,,,,,,,
210112886,1,Central,161,1000 W 8TH ST,,34.0487,-118.2627,,,,,,,,,,,,,,,
211115097,11,Northeast,1117,2200 NORWALK AV,,34.1325,-118.2161,,,,,,,,,,,,,,,
211419656,14,Pacific,1415,1400 ELKGROVE CI,,34.0011,-118.4582,,,,,,,,,,,,,,,
211417922,14,Pacific,1434,12400 VENICE BL,,33.9978,-118.4456,,,,,,,,,,,,,,,
211819073,18,Southeast,1802,400 W 90TH ST,,33.9551,-118.2814,,,,,,,,,,,,,,,
210123013,1,Central,119,800 N ALAMEDA ST,,34.0561,-118.2375,,,,,,,,,,,,,,,
210816402,8,West LA,827,11600 GORHAM AV,,34.0543,-118.4657,,,,,,,,,,,,,,,
210214202,2,Rampart,269,700 GARLAND AV,,34.0496,-118.2677,,,,,,,,,,,,,,,
210905111,9,Van Nuys,985,14300 DICKENS ST,,34.1492,-118.4449,,,,,,,,,,,,,,,
211408442,14,Pacific,1415,1400 ELKGROVE CI,,34.0011,-118.4582,,,,,,,,,,,,,,,
211408304,14,Pacific,1483,8200 REDLANDS ST,,33.956,-118.4397,,,,,,,,,,,,,,,
210816959,8,West LA,882,11200 W OLYMPIC BL,,34.039,-118.44,,,,,,,,,,,,,,,
210814482,8,West LA,889,1900 S CORNING ST,,34.041,-118.3802,,,,,,,,,,,,,,,
210308584,3,Southwest,328,3000 S SHRINE PL,,34.0243,-118.2806,,,,,,,,,,,,,,,
210613428,6,Hollywood,676,700 WILCOX AV,,34.0835,-118.331,,,,,,,,,,,,,,,
210809186,8,West LA,835,11000 MISSOURI AV,,34.0455,-118.4399,,,,,,,,,,,,,,,
210216634,2,Rampart,256,1900 W 6TH ST,,34.0585,-118.2725,,,,,,,,,,,,,,,
211414798,14,Pacific,1441,2200 OCEAN AV,,33.9867,-118.4647,,,,,,,,,,,,,,,
211500933,15,N Hollywood,1585,4100 ARCH DR,,34.1417,-118.3719,,,,,,,,,,,,,,,
210808754,8,West LA,835,1900 MALCOLM AV,,34.0478,-118.4324,,,,,,,,,,,,,,,
210115104,1,Central,121,900 W TEMPLE ST,,34.0607,-118.2494,,,,,,,,,,,,,,,
210107892,1,Central,152,800 W 7TH ST,,34.0491,-118.2558,,,,,,,,,,,,,,,
210319258,3,Southwest,328,2600 PORTLAND ST,,34.0301,-118.2826,,,,,,,,,,,,,,,
211414627,14,Pacific,1441,1800 WASHINGTON WY,,33.9878,-118.4613,,,,,,,,,,,,,,,
210815133,8,West LA,841,12400 ROCHESTER AV,,34.0387,-118.4675,,,,,,,,,,,,,,,
211414073,14,Pacific,1441,500 WASHINGTON BL,,33.9826,-118.4611,,,,,,,,,,,,,,,
210121756,1,Central,141,300 S FIGUEROA ST,,34.0542,-118.2566,,,,,,,,,,,,,,,
210320629,3,Southwest,325,2600 ELLENDALE PL,,34.0307,-118.2923,,,,,,,,,,,,,,,
210612627,6,Hollywood,643,1600 N LA BREA AV,,34.1007,-118.3494,,,,,,,,,,,,,,,
210315451,3,Southwest,308,2300 PORTLAND ST,,34.0334,-118.2813,,,,,,,,,,,,,,,
212111793,21,Topanga,2136,7200 VASSAR AV,,34.201,-118.6044,,,,,,,,,,,,,,,
210308166,3,Southwest,328,900 W 30TH ST,,34.0267,-118.2818,,,,,,,,,,,,,,,
210317229,3,Southwest,327,1100 W 28TH ST,,34.0294,-118.2846,,,,,,,,,,,,,,,
210111506,1,Central,153,300 W 5TH ST,,34.0481,-118.2507,,,,,,,,,,,,,,,
211413945,14,Pacific,1409,9800 TABOR ST,,34.0288,-118.401,,,,,,,,,,,,,,,
211417118,14,Pacific,1493,12000 VISTA DEL MAR,,33.93,-118.4346,,,,,,,,,,,,,,,
210811423,8,West LA,831,800 S BUNDY DR,,34.0504,-118.4724,,,,,,,,,,,,,,,
211411959,14,Pacific,1431,WINDWARD AV,S MAIN ST,33.9884,-118.4713,,,,,,,,,,,,,,,
210115689,1,Central,176,8TH ST,MAPLE,34.0408,-118.2512,,,,,,,,,,,,,,,
210810390,8,West LA,853,11400 MISSOURI AV,,34.0445,-118.4491,,,,,,,,,,,,,,,
210114755,1,Central,162,600 W 9TH ST,,34.0462,-118.2585,,,,,,,,,,,,,,,
210118560,1,Central,171,800 W OLYMPIC BL,,34.045,-118.264,,,,,,,,,,,,,,,
221404997,14,Pacific,1415,1000 FREDERICK ST,,33.9999,-118.462,,,,,,,,,,,,,,,
210111303,1,Central,185,9TH,BROADWAY,34.0419,-118.2561,,,,,,,,,,,,,,,
210911962,9,Van Nuys,933,14600 VICTORY BL,,34.1867,-118.4516,,,,,,,,,,,,,,,
212012859,20,Olympic,2033,600 S WESTERN AV,,34.0568,-118.3091,,,,,,,,,,,,,,,
210809338,8,West LA,881,11700 W OLYMPIC BL,,34.034,-118.4482,,,,,,,,,,,,,,,
220605011,6,Hollywood,678,800 N HARVARD BL,,34.0849,-118.304,,,,,,,,,,,,,,,
211113091,11,Northeast,1136,3800 W AVENUE 43,,34.1229,-118.2233,,,,,,,,,,,,,,,
212017156,20,Olympic,2039,2800 W 7TH ST,,34.0598,-118.2848,,,,,,,,,,,,,,,
210809621,8,West LA,841,1200 BROCKTON AV,,34.0456,-118.4649,,,,,,,,,,,,,,,
211114304,11,Northeast,1124,3500 FLETCHER DR,,34.1191,-118.2382,,,,,,,,,,,,,,,
210808415,8,West LA,885,10500 BRADBURY RD,,34.0403,-118.417,,,,,,,,,,,,,,,
212109820,21,Topanga,2158,21000 ERWIN ST,,34.1828,-118.5916,,,,,,,,,,,,,,,
210706388,7,Wilshire,737,W 3RD ST,S LA BREA AV,34.0689,-118.344,,,,,,,,,,,,,,,
210814175,8,West LA,855,10800 MASSACHUSETTS AV,,34.0519,-118.4366,,,,,,,,,,,,,,,
212111463,21,Topanga,2138,20500 SHERMAN WY,,34.2011,-118.5794,,,,,,,,,,,,,,,
211510247,15,N Hollywood,1535,LANKERSHIM,OXNARD,34.1794,-118.3834,,,,,,,,,,,,,,,
210706717,7,Wilshire,783,S COCHRAN AV,W WASHINGTON BL,34.037,-118.3592,,,,,,,,,,,,,,,
221508554,15,N Hollywood,1551,12300 RIVERSIDE DR,,34.1576,-118.4009,,,,,,,,,,,,,,,
210208998,2,Rampart,204,900 MALTMAN AV,,34.0848,-118.2804,,,,,,,,,,,,,,,
211418803,14,Pacific,1488,5800 INTERCEPTOR ST,,33.9553,-118.3827,,,,,,,,,,,,,,,
211916090,19,Mission,1925,14700 ASTORIA ST,,34.2981,-118.4537,,,,,,,,,,,,,,,
210315640,3,Southwest,338,3100 S HOOVER ST,,34.0268,-118.2896,,,,,,,,,,,,,,,
210619632,6,Hollywood,647,1600 N EL CENTRO AV,,34.0998,-118.3237,,,,,,,,,,,,,,,
211518786,15,N Hollywood,1535,11400 EMELITA ST,,34.1767,-118.3817,,,,,,,,,,,,,,,
210815920,8,West LA,839,10200 SANTA MONICA BL,,34.06,-118.42,,,,,,,,,,,,,,,
210809135,8,West LA,835,1700 CAMDEN AV,,34.0478,-118.4418,,,,,,,,,,,,,,,
210809280,8,West LA,853,1700 BELOIT AV,,34.0461,-118.4466,,,,,,,,,,,,,,,
210808014,8,West LA,882,2000 BELOIT AV,,34.0407,-118.4419,,,,,,,,,,,,,,,
211412999,14,Pacific,1453,4200 REDWOOD AV,,33.9884,-118.4379,,,,,,,,,,,,,,,
211405052,14,Pacific,1415,1000 ELKGROVE AV,,34,-118.4598,,,,,,,,,,,,,,,
211900524,19,Mission,1972,15200 NORDHOFF ST,,34.2355,-118.4636,,,,,,,,,,,,,,,
211417752,14,Pacific,1453,13400 MAXELLA AV,,33.9906,-118.4391,,,,,,,,,,,,,,,
210516572,5,Harbor,522,800 MCDONALD AV,,33.7795,-118.2711,,,,,,,,,,,,,,,
210108812,1,Central,182,1200 S HOPE ST,,34.0406,-118.2646,,,,,,,,,,,,,,,
212016637,20,Olympic,2036,600 S BERENDO ST,,34.0608,-118.2941,,,,,,,,,,,,,,,
210109845,1,Central,134,300 S BROADWAY,,34.0507,-118.2482,,,,,,,,,,,,,,,
211706195,17,Devonshire,1747,BALBOA BL,CHATSWORTH ST,34.2648,-118.5023,,,,,,,,,,,,,,,
222004685,20,Olympic,2036,600 S BERENDO ST,,34.0579,-118.2941,,,,,,,,,,,,,,,
211506077,15,N Hollywood,1532,12100 TIARA ST,,34.1784,-118.3973,,,,,,,,,,,,,,,
210218085,2,Rampart,236,300 N WESTLAKE AV,,34.0687,-118.2672,,,,,,,,,,,,,,,
210707554,7,Wilshire,735,600 S CLOVERDALE AV,,34.0628,-118.3462,,,,,,,,,,,,,,,
211422027,14,Pacific,1415,600 LINCOLN BL,,33.9998,-118.4645,,,,,,,,,,,,,,,
211710789,17,Devonshire,1754,18300 LEMARSH ST,,34.2555,-118.5325,,,,,,,,,,,,,,,
212006001,20,Olympic,2026,300 S VERMONT AV,,34.0672,-118.2941,,,,,,,,,,,,,,,
211406299,14,Pacific,1456,11800 CULVER BL,,33.9973,-118.4163,,,,,,,,,,,,,,,
210815070,8,West LA,838,700 GAYLEY AV,,34.0626,-118.4491,,,,,,,,,,,,,,,
210806688,8,West LA,895,3400 MANNING AV,,34.0303,-118.4046,,,,,,,,,,,,,,,
211420039,14,Pacific,1431,1300 ABBOT KINNEY BL,,33.9911,-118.4678,,,,,,,,,,,,,,,
210717175,7,Wilshire,705,LA BREA AV,WILLOUGHBY AV,34.0871,-118.3441,,,,,,,,,,,,,,,
211409334,14,Pacific,1412,SPEEDWAY,NAVY,33.996,-118.4812,,,,,,,,,,,,,,,
211112170,11,Northeast,1147,1500 RANDALL CT,,34.1008,-118.2269,,,,,,,,,,,,,,,
210215985,2,Rampart,261,2600 W 7TH ST,,34.059,-118.2824,,,,,,,,,,,,,,,
210711019,7,Wilshire,724,7600 BEVERLY BL,,34.0762,-118.3555,,,,,,,,,,,,,,,
211421809,14,Pacific,1433,1100 PALMS BL,,33.9995,-118.4577,,,,,,,,,,,,,,,
210607219,6,Hollywood,645,HOLLYWOOD BL,N LA BREA AV,0,0,,,,,,,,,,,,,,,
211408167,14,Pacific,1444,3200 CARTER AV,,33.9868,-118.4451,,,,,,,,,,,,,,,
210618004,6,Hollywood,644,1400 N ALTA VISTA BL,,34.0964,-118.3471,,,,,,,,,,,,,,,
211414586,14,Pacific,1452,CATAMARAN,SPEEDWAY,33.9776,-118.4652,,,,,,,,,,,,,,,
220114678,1,Central,118,1400 NAUD ST,,34.0657,-118.232,,,,,,,,,,,,,,,
210807798,8,West LA,857,1400 S CANFIELD AV,,34.0548,-118.3894,,,,,,,,,,,,,,,
211311029,13,Newton,1367,1600 E VERNON AV,,34.0039,-118.2455,,,,,,,,,,,,,,,
210315572,3,Southwest,327,1100 W ADAMS BL,,34.0317,-118.284,,,,,,,,,,,,,,,
211218192,12,77th Street,1243,WESTERN AV,GAGE AV,33.9819,-118.309,,,,,,,,,,,,,,,
210312569,3,Southwest,356,3700 S WESTERN AV,,34.0208,-118.3089,,,,,,,,,,,,,,,
210115969,1,Central,142,400 W 5TH ST,,34.0519,-118.2531,,,,,,,,,,,,,,,
211508088,15,N Hollywood,1549,CASE,CUMPSTON,34.17,-118.3719,,,,,,,,,,,,,,,
210710832,7,Wilshire,723,8200 W 3RD ST,,34.0724,-118.368,,,,,,,,,,,,,,,
210309411,3,Southwest,357,1100 W 36TH PL,,34.0221,-118.2938,,,,,,,,,,,,,,,
210813490,8,West LA,841,12400 ROCHESTER AV,,34.0387,-118.4675,,,,,,,,,,,,,,,
210113182,1,Central,162,800 S FLOWER ST,,34.0468,-118.2605,,,,,,,,,,,,,,,
210617369,6,Hollywood,643,7200 FRANKLIN AV,,34.1034,-118.349,,,,,,,,,,,,,,,
210914299,9,Van Nuys,964,HAZELTINE AV,HARTSOOK ST,34.1635,-118.44,,,,,,,,,,,,,,,
210808981,8,West LA,881,1900 S BUNDY DR,,34.035,-118.4567,,,,,,,,,,,,,,,
221704363,17,Devonshire,1785,9100 DARBY AV,,34.2355,-118.5338,,,,,,,,,,,,,,,
210813362,8,West LA,855,1400 VETERAN AV,,34.0517,-118.442,,,,,,,,,,,,,,,
211409026,14,Pacific,1453,IDA AV,REDWOOD AV,33.9913,-118.4399,,,,,,,,,,,,,,,
210319924,3,Southwest,338,3100 ORCHARD AV,,34.0261,-118.2882,,,,,,,,,,,,,,,
210912779,9,Van Nuys,941,5700 N SEPULVEDA BL,,34.174,-118.4661,,,,,,,,,,,,,,,
212105164,21,Topanga,2175,5800 TOPANGA CANYON BL,,34.1732,-118.6152,,,,,,,,,,,,,,,
210316830,3,Southwest,325,2800 ELLENDALE PL,,34.0307,-118.2923,,,,,,,,,,,,,,,
210119584,1,Central,135,100 W 4TH ST,,34.0495,-118.2458,,,,,,,,,,,,,,,
211415169,14,Pacific,1402,11300 GRAHAM PL,,34.0298,-118.4357,,,,,,,,,,,,,,,
211404274,14,Pacific,1406,3400 MENTONE AV,,34.0259,-118.4097,,,,,,,,,,,,,,,
212015961,20,Olympic,2027,WILSHIRE,SERRANO,34.0636,-118.296,,,,,,,,,,,,,,,
210808633,8,West LA,832,1100 BARRY AV,,34.0518,-118.4607,,,,,,,,,,,,,,,
210809483,8,West LA,853,1800 PURDUE AV,,34.0413,-118.4469,,,,,,,,,,,,,,,
210915297,9,Van Nuys,957,13900 CHANDLER BL,,34.1684,-118.4389,,,,,,,,,,,,,,,
210312238,3,Southwest,308,1000 W 23RD ST,,34.0341,-118.2816,,,,,,,,,,,,,,,
220804764,8,West LA,882,1900 BELOIT AV,,34.0431,-118.444,,,,,,,,,,,,,,,
210814331,8,West LA,858,1700 S ROBERTSON BL,,34.0521,-118.3864,,,,,,,,,,,,,,,
210613092,6,Hollywood,649,1600 N SERRANO AV,,34.1002,-118.3071,,,,,,,,,,,,,,,
210809079,8,West LA,853,1700 BELOIT AV,,34.0461,-118.4466,,,,,,,,,,,,,,,
210212783,2,Rampart,249,1100 W 6TH ST,,34.0541,-118.2621,,,,,,,,,,,,,,,
210817046,8,West LA,855,1500 S BENTLEY AV,,34.0497,-118.4448,,,,,,,,,,,,,,,
210118357,1,Central,152,600 W 5TH ST,,34.0502,-118.2539,,,,,,,,,,,,,,,
210315231,3,Southwest,337,2900 S NORMANDIE AV,,34.0286,-118.3002,,,,,,,,,,,,,,,
210815284,8,West LA,898,9100 NATIONAL BL,,34.0364,-118.3872,,,,,,,,,,,,,,,
210319019,3,Southwest,327,1100 W ADAMS BL,,34.0317,-118.284,,,,,,,,,,,,,,,
210216883,2,Rampart,236,300 N WESTLAKE AV,,34.0687,-118.2672,,,,,,,,,,,,,,,
210105032,1,Central,161,7TH ST,FIGUEROA ST,34.0496,-118.2603,,,,,,,,,,,,,,,
210908640,9,Van Nuys,969,12900 RIVERSIDE DR,,34.1576,-118.4144,,,,,,,,,,,,,,,
210616201,6,Hollywood,647,1600 VINE ST,,34.0998,-118.3267,,,,,,,,,,,,,,,
211420281,14,Pacific,1464,12900 W RUNWAY RD,,33.9743,-118.4219,,,,,,,,,,,,,,,
212006876,20,Olympic,2002,4700 BEVERLY BL,,34.0799,-118.3113,,,,,,,,,,,,,,,
210110244,1,Central,118,1100 N MAIN ST,,34.0633,-118.2336,,,,,,,,,,,,,,,
211409520,14,Pacific,1406,10500 NATIONAL BL,,34.0296,-118.4125,,,,,,,,,,,,,,,
211407625,14,Pacific,1409,3700 S CANFIELD AV,,34.0265,-118.3946,,,,,,,,,,,,,,,
210614518,6,Hollywood,659,1400 N KINGSLEY DR,,34.0967,-118.3031,,,,,,,,,,,,,,,
210914138,9,Van Nuys,966,4800 FULTON AV,,34.1622,-118.4269,,,,,,,,,,,,,,,
210619550,6,Hollywood,648,1600 TAFT AV,,34.1001,-118.3148,,,,,,,,,,,,,,,
211415711,14,Pacific,1441,29TH ST,SPEEDWAY,33.9809,-118.4666,,,,,,,,,,,,,,,
210814351,8,West LA,855,1600 MALCOLM AV,,34.052,-118.4371,,,,,,,,,,,,,,,
210109180,1,Central,119,800 N ALAMEDA ST,,34.0561,-118.2375,,,,,,,,,,,,,,,
210217629,2,Rampart,217,1900 W SUNSET BL,,34.078,-118.2612,,,,,,,,,,,,,,,
212112391,21,Topanga,2158,6300 DE SOTO AV,,34.1847,-118.5886,,,,,,,,,,,,,,,
211515358,15,N Hollywood,1522,7000 COLDWATER CANYON AV,,34.1936,-118.4166,,,,,,,,,,,,,,,
211410975,14,Pacific,1412,00 BREEZE AV,,33.9904,-118.4759,,,,,,,,,,,,,,,
211417627,14,Pacific,1444,3200 WASHINGTON BL,,33.9898,-118.4491,,,,,,,,,,,,,,,
212010140,20,Olympic,2026,300 S BERENDO ST,,34.0674,-118.2941,,,,,,,,,,,,,,,
210113970,1,Central,162,600 W 9TH ST,,34.0462,-118.2585,,,,,,,,,,,,,,,
210119436,1,Central,171,1000 W OLYMPIC BL,,34.0461,-118.2674,,,,,,,,,,,,,,,
212105645,21,Topanga,2157,21200 KITTRIDGE ST,,34.1913,-118.5942,,,,,,,,,,,,,,,
210812849,8,West LA,857,1100 S DOHENY DR,,34.0567,-118.3899,,,,,,,,,,,,,,,
211409448,14,Pacific,1463,13100 FOUNTAIN PARK DR,,33.9747,-118.4287,,,,,,,,,,,,,,,
211410442,14,Pacific,1464,CENTINELA,JEFFERSON,33.9813,-118.4092,,,,,,,,,,,,,,,
211414924,14,Pacific,1432,1600 ABBOT KINNEY BL,,33.9934,-118.46,,,,,,,,,,,,,,,
210808200,8,West LA,851,1500 S BUNDY DR,,34.0402,-118.4629,,,,,,,,,,,,,,,
212018153,20,Olympic,2021,400 S NORTON AV,,34.0653,-118.3173,,,,,,,,,,,,,,,
211506345,15,N Hollywood,1526,6000 LANKERSHIM BL,,34.1794,-118.3834,,,,,,,,,,,,,,,
210810677,8,West LA,835,1900 SELBY AV,,34.0487,-118.4319,,,,,,,,,,,,,,,
210214912,2,Rampart,204,1300 LUCILE AV,,34.0883,-118.2805,,,,,,,,,,,,,,,
210507062,5,Harbor,562,1700 S PATTON AV,,33.7284,-118.3056,,,,,,,,,,,,,,,
210316539,3,Southwest,325,2600 MENLO AV,,34.0284,-118.2903,,,,,,,,,,,,,,,
211408458,14,Pacific,1445,3900 ALLA RD,,33.9948,-118.4401,,,,,,,,,,,,,,,
211515093,15,N Hollywood,1539,5600 VINELAND AV,,34.1722,-118.3703,,,,,,,,,,,,,,,
210110153,1,Central,152,600 S FLOWER ST,,34.0496,-118.258,,,,,,,,,,,,,,,
210817216,8,West LA,884,11000 W PICO BL,,34.0383,-118.4325,,,,,,,,,,,,,,,
212006618,20,Olympic,2031,700 S MANHATTAN,,34.0581,-118.3102,,,,,,,,,,,,,,,
212017228,20,Olympic,2011,100 S ST ANDREWS PL,,34.0725,-118.3153,,,,,,,,,,,,,,,
212012582,20,Olympic,2029,2800 W 6TH ST,,34.0632,-118.2831,,,,,,,,,,,,,,,
211413516,14,Pacific,1444,13700 MARINA POINTE DR,,33.9849,-118.4445,,,,,,,,,,,,,,,
211916372,19,Mission,1913,12800 BRADLEY AV,,34.3023,-118.4557,,,,,,,,,,,,,,,
210909750,9,Van Nuys,935,VAN NUYS BL,VICTORY BL,34.1867,-118.4487,,,,,,,,,,,,,,,
212017363,20,Olympic,2039,2900 LEEWARD AV,,34.0587,-118.2891,,,,,,,,,,,,,,,
211014526,10,West Valley,1035,17800 DUNCAN ST,,34.1858,-118.5207,,,,,,,,,,,,,,,
210615510,6,Hollywood,668,5600 LEXINGTON AV,,34.0928,-118.3132,,,,,,,,,,,,,,,
210610552,6,Hollywood,657,5700 SANTA MONICA BL,,34.0908,-118.314,,,,,,,,,,,,,,,
220804119,8,West LA,884,11000 W PICO BL,,34.0383,-118.4323,,,,,,,,,,,,,,,
211413048,14,Pacific,1449,3800 MCLAUGHLIN AV,,34.0084,-118.4243,,,,,,,,,,,,,,,
210114573,1,Central,111,800 ALPINE ST,,34.0637,-118.244,,,,,,,,,,,,,,,
210604702,6,Hollywood,643,SUNSET,POINSETTIA,34.098,-118.3483,,,,,,,,,,,,,,,
210104950,1,Central,174,800 S LOS ANGELES ST,,34.0426,-118.2528,,,,,,,,,,,,,,,
210812650,8,West LA,827,200 S BARRINGTON AV,,34.0634,-118.4686,,,,,,,,,,,,,,,
210808101,8,West LA,881,BUNDY DR,MISSOURI AV,34.0353,-118.4571,,,,,,,,,,,,,,,
220510586,5,Harbor,563,1100 S GRAND AV,,33.7343,-118.2902,,,,,,,,,,,,,,,
210812879,8,West LA,884,10800 W PICO BL,,34.0404,-118.4279,,,,,,,,,,,,,,,
210811224,8,West LA,881,12200 NEBRASKA AV,,34.0351,-118.4593,,,,,,,,,,,,,,,
210116996,1,Central,139,900 E 3RD ST,,34.0459,-118.2352,,,,,,,,,,,,,,,
210705225,7,Wilshire,726,100 S DETROIT ST,,34.071,-118.3452,,,,,,,,,,,,,,,
210218671,2,Rampart,237,300 BELMONT AV,,34.0669,-118.2632,,,,,,,,,,,,,,,
211421814,14,Pacific,1444,3200 CARTER AV,,33.9868,-118.4451,,,,,,,,,,,,,,,
210809271,8,West LA,824,100 MABERY RD,,34.0273,-118.5162,,,,,,,,,,,,,,,
220807599,8,West LA,835,GREENFIELD,MISSOURI AV,34.046,-118.439,,,,,,,,,,,,,,,
212006835,20,Olympic,2039,2900 LEEWARD AV,,34.0587,-118.2869,,,,,,,,,,,,,,,
210610856,6,Hollywood,646,CHEROKEE,HOLLYWOOD,34.1016,-118.335,,,,,,,,,,,,,,,
210817996,8,West LA,852,1700 GRANVILLE AV,,34.0388,-118.4547,,,,,,,,,,,,,,,
210108335,1,Central,142,400 W 5TH ST,,34.0519,-118.2531,,,,,,,,,,,,,,,
211411279,14,Pacific,1444,4300 LINCOLN BL,,33.9846,-118.4428,,,,,,,,,,,,,,,
210314978,3,Southwest,338,1400 W 30TH ST,,34.0272,-118.2959,,,,,,,,,,,,,,,
210218658,2,Rampart,204,700 N HOOVER ST,,34.0837,-118.2845,,,,,,,,,,,,,,,
212116858,21,Topanga,2162,5700 MANTON AV,,34.1737,-118.6408,,,,,,,,,,,,,,,
210111670,1,Central,128,100 S SAN PEDRO ST,,34.0503,-118.241,,,,,,,,,,,,,,,
211420097,14,Pacific,1413,500 ROSE AV,,33.9981,-118.4741,,,,,,,,,,,,,,,
211413432,14,Pacific,1454,13200 FIJI WY,,33.9792,-118.4355,,,,,,,,,,,,,,,
220804564,8,West LA,832,1000 S WESTGATE AV,,34.0493,-118.4666,,,,,,,,,,,,,,,
210611340,6,Hollywood,648,5400 W SUNSET BL,,34.1,-118.3113,,,,,,,,,,,,,,,
210122463,1,Central,153,500 S HILL ST,,34.0486,-118.2519,,,,,,,,,,,,,,,
211400942,14,Pacific,1432,1600 ELECTRIC AV,,33.9905,-118.4609,,,,,,,,,,,,,,,
210813065,8,West LA,817,HILGARD,WEYBURN,34.0616,-118.4416,,,,,,,,,,,,,,,
221412485,14,Pacific,1453,4100 GLENCOE AV,,33.9904,-118.4433,,,,,,,,,,,,,,,
210809715,8,West LA,872,PACIFIC COAST HY,ENTRADA DR,34.0278,-118.5188,,,,,,,,,,,,,,,
211412678,14,Pacific,1493,12000 VISTA DEL MAR,,33.93,-118.4346,,,,,,,,,,,,,,,
211109181,11,Northeast,1118,200 N AVENUE 57,,34.1107,-118.1937,,,,,,,,,,,,,,,
210215544,2,Rampart,205,600 N OCCIDENTAL BL,,34.0769,-118.2758,,,,,,,,,,,,,,,
211508042,15,N Hollywood,1581,12100 VALLEY SPRING LN,,34.1467,-118.397,,,,,,,,,,,,,,,
210709031,7,Wilshire,745,700 S COCHRAN AV,,34.0618,-118.3473,,,,,,,,,,,,,,,
210110601,1,Central,111,COLLEGE,SPRING,34.0637,-118.2361,,,,,,,,,,,,,,,
210810899,8,West LA,855,10700 MASSACHUSETTS AV,,34.0521,-118.4375,,,,,,,,,,,,,,,
211006496,10,West Valley,1024,6700 AMIGO AV,,34.1923,-118.5386,,,,,,,,,,,,,,,
210115764,1,Central,157,600 CROCKER ST,,34.0414,-118.2446,,,,,,,,,,,,,,,
210120665,1,Central,157,500 TOWNE AV,,34.0427,-118.2423,,,,,,,,,,,,,,,
210611067,6,Hollywood,635,1900 GRACE AV,,34.1052,-118.3322,,,,,,,,,,,,,,,
210317659,3,Southwest,338,3100 S HOOVER ST,,34.0268,-118.2896,,,,,,,,,,,,,,,
210709360,7,Wilshire,727,100 S HIGHLAND AV,,34.071,-118.3385,,,,,,,,,,,,,,,
210217357,2,Rampart,269,700 S BIXEL ST,,34.0507,-118.2643,,,,,,,,,,,,,,,
212017220,20,Olympic,2005,500 N NORMANDIE AV,,34.0799,-118.3025,,,,,,,,,,,,,,,
211319173,13,Newton,1307,600 E 7TH ST,,34.0401,-118.2459,,,,,,,,,,,,,,,
211116781,11,Northeast,1132,4300 LOS FELIZ BL,,34.1124,-118.2844,,,,,,,,,,,,,,,
211412681,14,Pacific,1449,11800 PACIFIC AV,,34.0058,-118.4275,,,,,,,,,,,,,,,
210815121,8,West LA,824,600 SAN LORENZO ST,,34.0344,-118.5094,,,,,,,,,,,,,,,
210215029,2,Rampart,249,600 ST PAUL AV,,34.0542,-118.2611,,,,,,,,,,,,,,,
211114770,11,Northeast,1132,3700 LOS FELIZ BL,,34.1151,-118.2745,,,,,,,,,,,,,,,
211008367,10,West Valley,1017,7300 LASAINE AV,,34.2036,-118.5109,,,,,,,,,,,,,,,
210617261,6,Hollywood,636,6700 FRANKLIN PL,,34.1042,-118.3362,,,,,,,,,,,,,,,
210810383,8,West LA,855,1600 VETERAN AV,,34.0494,-118.4405,,,,,,,,,,,,,,,
212015019,20,Olympic,2036,600 S NEW HAMPSHIRE AV,,34.0608,-118.2929,,,,,,,,,,,,,,,
210113186,1,Central,138,200 S SAN PEDRO ST,,34.0487,-118.242,,,,,,,,,,,,,,,
211016067,10,West Valley,1024,6600 BAIRD AV,,34.191,-118.5376,,,,,,,,,,,,,,,
210809806,8,West LA,882,2100 BELOIT AV,,34.0388,-118.4403,,,,,,,,,,,,,,,
211407951,14,Pacific,1444,700 MARR ST,,33.9877,-118.4549,,,,,,,,,,,,,,,
212018851,20,Olympic,2022,400 S GRAMERCY PL,,34.0653,-118.3128,,,,,,,,,,,,,,,
210716466,7,Wilshire,734,500 HAUSER BL,,34.0656,-118.3513,,,,,,,,,,,,,,,
210704568,7,Wilshire,734,5800 LINDENHURST AV,,34.0663,-118.3538,,,,,,,,,,,,,,,
211415363,14,Pacific,1443,900 VENICE BL,,33.9926,-118.4556,,,,,,,,,,,,,,,
211411977,14,Pacific,1412,00 NAVY ST,,33.9963,-118.4807,,,,,,,,,,,,,,,
210119921,1,Central,123,300 W 1ST ST,,34.0536,-118.2455,,,,,,,,,,,,,,,
211907980,19,Mission,1985,8400 VAN NUYS BL,,34.2229,-118.4487,,,,,,,,,,,,,,,
210815313,8,West LA,837,500 LANDFAIR AV,,34.0673,-118.4498,,,,,,,,,,,,,,,
211414325,14,Pacific,1414,200 RUTH AV,,33.9999,-118.4716,,,,,,,,,,,,,,,
220804584,8,West LA,836,1800 FAIRBURN AV,,34.0548,-118.4276,,,,,,,,,,,,,,,
211409182,14,Pacific,1441,SHERMAN CANAL,DELL AV,33.9833,-118.4654,,,,,,,,,,,,,,,
211412645,14,Pacific,1407,NATIONAL BL,PALMS BL,34.0294,-118.4033,,,,,,,,,,,,,,,
210115652,1,Central,143,400 S SPRING ST,,34.0488,-118.25,,,,,,,,,,,,,,,
210618430,6,Hollywood,636,6700 FRANKLIN PL,,34.1042,-118.3362,,,,,,,,,,,,,,,
210317618,3,Southwest,358,W 34TH ST,FIGUEROA ST,34.0216,-118.2814,,,,,,,,,,,,,,,
210806293,8,West LA,881,2000 S BUNDY DR,,34.0336,-118.4552,,,,,,,,,,,,,,,
210210560,2,Rampart,251,600 S RAMPART BL,,34.0619,-118.2817,,,,,,,,,,,,,,,
211514288,15,N Hollywood,1522,7100 COLDWATER CANYON AV,,34.1936,-118.4166,,,,,,,,,,,,,,,
211408599,14,Pacific,1456,12100 LOUISE AV,,33.9955,-118.4233,,,,,,,,,,,,,,,
211709717,17,Devonshire,1752,9900 LURLINE AV,,34.2536,-118.5913,,,,,,,,,,,,,,,
211709162,17,Devonshire,1717,11200 DEBRA AV,,34.2737,-118.4897,,,,,,,,,,,,,,,
210305035,3,Southwest,313,2500 10TH AV,,34.0333,-118.3311,,,,,,,,,,,,,,,
210707497,7,Wilshire,743,5600 W 8TH ST,,34.061,-118.3619,,,,,,,,,,,,,,,
211418763,14,Pacific,1414,700 SUNSET AV,,33.9988,-118.4682,,,,,,,,,,,,,,,
211420846,14,Pacific,1407,3600 CLARINGTON AV,,34.0248,-118.4021,,,,,,,,,,,,,,,
210405263,4,Hollenbeck,421,S AVENUE 20,MOZART ST,34.0703,-118.2186,,,,,,,,,,,,,,,
210111345,1,Central,182,1200 S FIGUEROA ST,,34.0416,-118.2671,,,,,,,,,,,,,,,
210119851,1,Central,153,600 S SPRING ST,,34.0467,-118.252,,,,,,,,,,,,,,,
212110257,21,Topanga,2177,5500 OWENSMOUTH AV,,34.1717,-118.6018,,,,,,,,,,,,,,,
220304089,3,Southwest,338,3100 S HOOVER ST,,34.0268,-118.2896,,,,,,,,,,,,,,,
212007130,20,Olympic,2029,3400 W 3RD ST,,34.0691,-118.2899,,,,,,,,,,,,,,,
211706404,17,Devonshire,1771,OSO AV,PRAIRIE ST,34.2392,-118.5754,,,,,,,,,,,,,,,
211609595,16,Foothill,1672,LANKERSHIM,NEENACH,34.2309,-118.3878,,,,,,,,,,,,,,,
210712609,7,Wilshire,726,N DETROIT ST,W 1ST ST,34.0736,-118.3452,,,,,,,,,,,,,,,
231515689,15,N Hollywood,1555,11200 OTSEGO ST,,34.163,-118.3747,,,,,,,,,,,,,,,
220704466,7,Wilshire,734,300 S COCHRAN AV,,34.0677,-118.3548,,,,,,,,,,,,,,,
210612640,6,Hollywood,663,1200 N MANSFIELD AV,,34.0926,-118.3405,,,,,,,,,,,,,,,
211013003,10,West Valley,1079,4800 GAVIOTA AV,,34.1573,-118.4815,,,,,,,,,,,,,,,
210118548,1,Central,161,700 S FIGUEROA ST,,34.0483,-118.2631,,,,,,,,,,,,,,,
211405281,14,Pacific,1444,13600 MARINA POINTE DR,,33.9849,-118.4445,,,,,,,,,,,,,,,
210119174,1,Central,182,1200 S HOPE ST,,34.0406,-118.2646,,,,,,,,,,,,,,,
211113478,11,Northeast,1149,5500 N FIGUEROA ST,,34.1081,-118.1958,,,,,,,,,,,,,,,
212014898,20,Olympic,2033,3600 WILSHIRE BL,,34.0617,-118.3087,,,,,,,,,,,,,,,
220804140,8,West LA,832,1100 GRANVILLE AV,,34.0498,-118.4641,,,,,,,,,,,,,,,
210814010,8,West LA,849,800 S WOOSTER ST,,34.0609,-118.3824,,,,,,,,,,,,,,,
211420029,14,Pacific,1463,5300 PLAYA VISTA DR,,33.9749,-118.4281,,,,,,,,,,,,,,,
210708060,7,Wilshire,747,5100 W 9TH ST,,34.0588,-118.3419,,,,,,,,,,,,,,,
210120410,1,Central,152,600 W 7TH ST,,34.0491,-118.2558,,,,,,,,,,,,,,,
210318698,3,Southwest,358,900 35TH ST,,34.0215,-118.2868,,,,,,,,,,,,,,,
211408859,14,Pacific,1443,VENICE,GLYNDON,33.9958,-118.4492,,,,,,,,,,,,,,,
210806131,8,West LA,835,10700 LA GRANGE AV,,34.0459,-118.4356,,,,,,,,,,,,,,,
210111302,1,Central,182,11TH,FIGUEROA,34.0437,-118.2652,,,,,,,,,,,,,,,
210113989,1,Central,132,200 S GRAND AV,,34.0539,-118.2503,,,,,,,,,,,,,,,
210111681,1,Central,153,6TH ST,SPRING ST,34.0466,-118.252,,,,,,,,,,,,,,,
211409268,14,Pacific,1456,11700 COURTLEIGH DR,,33.9974,-118.4188,,,,,,,,,,,,,,,
210308167,3,Southwest,338,3100 S HOOVER ST,,34.0268,-118.2896,,,,,,,,,,,,,,,
212017374,20,Olympic,2017,200 S BERENDO ST,,34.0709,-118.2942,,,,,,,,,,,,,,,
210709815,7,Wilshire,736,400 S CLOVERDALE AV,,34.0649,-118.3462,,,,,,,,,,,,,,,
212009900,20,Olympic,2034,3500 WILSHIRE BL,,34.0617,-118.3008,,,,,,,,,,,,,,,
210506418,5,Harbor,561,1900 CUMBRE DR,,33.7293,-118.3186,,,,,,,,,,,,,,,
210208313,2,Rampart,251,2600 WILSHIRE BL,,34.0605,-118.2814,,,,,,,,,,,,,,,
211422306,14,Pacific,1412,00 WAVECREST AV,,33.9897,-118.4756,,,,,,,,,,,,,,,
210704735,7,Wilshire,736,300 S COCHRAN AV,,34.0687,-118.3472,,,,,,,,,,,,,,,
220304889,3,Southwest,358,3700 MCCLINTOCK AV,,34.0197,-118.2905,,,,,,,,,,,,,,,
210800957,8,West LA,884,2200 WESTWOOD BL,,34.0435,-118.4314,,,,,,,,,,,,,,,
210807171,8,West LA,884,2400 S SEPULVEDA BL,,34.0364,-118.4346,,,,,,,,,,,,,,,
210816531,8,West LA,854,1800 S SEPULVEDA BL,,34.0469,-118.4451,,,,,,,,,,,,,,,
211906191,19,Mission,1983,8400 BURNET AV,,34.2231,-118.4633,,,,,,,,,,,,,,,
210319426,3,Southwest,393,4200 EDGEHILL DR,,34.0083,-118.3304,,,,,,,,,,,,,,,
210806983,8,West LA,842,WESTGATE AV,TEXAS AV,34.0455,-118.4619,,,,,,,,,,,,,,,
210319017,3,Southwest,338,3100 ORCHARD AV,,34.0261,-118.2882,,,,,,,,,,,,,,,
210205610,2,Rampart,233,100 N RAMPART BL,,34.0695,-118.2768,,,,,,,,,,,,,,,
211416816,14,Pacific,1436,3700 SAWTELLE BL,,34.0134,-118.4213,,,,,,,,,,,,,,,
210808899,8,West LA,832,11800 MAYFIELD AV,,34.0493,-118.4666,,,,,,,,,,,,,,,
221505446,15,N Hollywood,1548,5400 FAIR AV,,34.1681,-118.3743,,,,,,,,,,,,,,,
210119588,1,Central,161,700 S FIGUEROA ST,,34.0483,-118.2631,,,,,,,,,,,,,,,
211417204,14,Pacific,1454,12800 ADMIRAL AV,,33.9855,-118.4289,,,,,,,,,,,,,,,
211115370,11,Northeast,1162,4500 W SUNSET BL,,34.0981,-118.2874,,,,,,,,,,,,,,,
210122303,1,Central,132,200 S FIGUEROA ST,,34.0562,-118.2535,,,,,,,,,,,,,,,
210813096,8,West LA,812,800 N HANLEY AV,,34.0724,-118.4877,,,,,,,,,,,,,,,
210808235,8,West LA,884,2400 S SEPULVEDA BL,,34.0364,-118.4346,,,,,,,,,,,,,,,
210804086,8,West LA,828,10500 GARWOOD PL,,34.0679,-118.4355,,,,,,,,,,,,,,,
211405422,14,Pacific,1464,12800 W RUNWAY RD,,33.9753,-118.4197,,,,,,,,,,,,,,,
210118528,1,Central,176,800 S SAN PEDRO ST,,34.0404,-118.2504,,,,,,,,,,,,,,,
212017217,20,Olympic,2036,600 S BERENDO ST,,34.0608,-118.2941,,,,,,,,,,,,,,,
211408610,14,Pacific,1444,700 MARR ST,,33.9877,-118.4549,,,,,,,,,,,,,,,
211513190,15,N Hollywood,1501,13200 CANTARA ST,,34.2198,-118.4181,,,,,,,,,,,,,,,
210812387,8,West LA,831,12400 WILSHIRE BL,,34.0473,-118.4768,,,,,,,,,,,,,,,
210716358,7,Wilshire,721,8600 BURTON WY,,34.0721,-118.38,,,,,,,,,,,,,,,
211405826,14,Pacific,1413,300 6TH AV,,33.9956,-118.4722,,,,,,,,,,,,,,,
211413438,14,Pacific,1413,500 VERNON AV,,33.9958,-118.472,,,,,,,,,,,,,,,
210807164,8,West LA,835,1800 GREENFIELD AV,,34.0481,-118.4408,,,,,,,,,,,,,,,
211422016,14,Pacific,1459,4800 S SEPULVEDA BL,,34.0006,-118.4027,,,,,,,,,,,,,,,
211414204,14,Pacific,1441,2300 BOONE AV,,33.9864,-118.4587,,,,,,,,,,,,,,,
211508017,15,N Hollywood,1555,11100 OTSEGO ST,,34.163,-118.3709,,,,,,,,,,,,,,,
211518108,15,N Hollywood,1563,4200 TUJUNGA AV,,34.1512,-118.3864,,,,,,,,,,,,,,,
210906535,9,Van Nuys,952,15200 BURBANK BL,,34.1721,-118.4642,,,,,,,,,,,,,,,
210109450,1,Central,176,8TH ST,SANTEE,34.0413,-118.2517,,,,,,,,,,,,,,,
211409186,14,Pacific,1431,1700 PACIFIC AV,,33.9869,-118.4716,,,,,,,,,,,,,,,
210707328,7,Wilshire,717,300 N MCCADDEN PL,,34.0762,-118.3373,,,,,,,,,,,,,,,
210316697,3,Southwest,327,1100 W 28TH ST,,34.0294,-118.2846,,,,,,,,,,,,,,,
210314696,3,Southwest,328,2800 S FIGUEROA ST,,34.0268,-118.2808,,,,,,,,,,,,,,,
212004516,20,Olympic,2045,S MARIPOSA,JAMES M WOOD,34.0559,-118.2987,,,,,,,,,,,,,,,
211514647,15,N Hollywood,1548,11000 CHANDLER BL,,34.1681,-118.3725,,,,,,,,,,,,,,,
231505305,15,N Hollywood,1555,11200 OTSEGO ST,,34.163,-118.3747,,,,,,,,,,,,,,,
210817330,8,West LA,841,1200 WELLESLEY AV,,34.0418,-118.4681,,,,,,,,,,,,,,,
210108531,1,Central,162,8TH ST,FLOWER,34.0473,-118.2601,,,,,,,,,,,,,,,
211507176,15,N Hollywood,1548,5300 LANKERSHIM BL,,34.167,-118.3759,,,,,,,,,,,,,,,
211517077,15,N Hollywood,1583,4000 RADFORD AV,,34.1442,-118.3928,,,,,,,,,,,,,,,
212007786,20,Olympic,2069,1000 S WESTMORELAND AV,,34.0508,-118.2891,,,,,,,,,,,,,,,
210116934,1,Central,101,1100 ALPINE ST,,34.0662,-118.2476,,,,,,,,,,,,,,,
210805393,8,West LA,884,2200 CAMDEN AV,,34.0398,-118.4349,,,,,,,,,,,,,,,
211412995,14,Pacific,1445,12700 CASWELL AV,,33.9976,-118.4384,,,,,,,,,,,,,,,
211315642,13,Newton,1321,300 W ADAMS BL,,34.0289,-118.2686,,,,,,,,,,,,,,,
211113266,11,Northeast,1179,100 E AVENUE 42,,34.0929,-118.2078,,,,,,,,,,,,,,,
211516910,15,N Hollywood,1549,5500 FULCHER AV,,34.17,-118.373,,,,,,,,,,,,,,,
211407042,14,Pacific,1413,500 SUNSET AV,,33.9965,-118.4726,,,,,,,,,,,,,,,
210704730,7,Wilshire,701,600 N SWEETZER AV,,34.0819,-118.3703,,,,,,,,,,,,,,,
210118550,1,Central,163,800 S BROADWAY,,34.0434,-118.255,,,,,,,,,,,,,,,
211820093,18,Southeast,1831,600 LACONIA BL,,33.9187,-118.2851,,,,,,,,,,,,,,,
211411687,14,Pacific,1427,11100 NATIONAL BL,,34.0279,-118.4273,,,,,,,,,,,,,,,
210311098,3,Southwest,358,1000 W 34TH ST,,34.024,-118.2869,,,,,,,,,,,,,,,
212009303,20,Olympic,2029,WILSHIRE BL,SHATTO PL,34.0618,-118.2903,,,,,,,,,,,,,,,
211422344,14,Pacific,1437,3700 S BENTLEY AV,,34.0154,-118.4171,,,,,,,,,,,,,,,
211406898,14,Pacific,1444,700 MARR ST,,33.9877,-118.4549,,,,,,,,,,,,,,,
211111497,11,Northeast,1149,5500 MEDIA DR,,34.1074,-118.1978,,,,,,,,,,,,,,,
210618916,6,Hollywood,621,2100 SUNSET CREST DR,,34.1114,-118.389,,,,,,,,,,,,,,,
211408411,14,Pacific,1402,11500 CLARKSON RD,,34.0252,-118.4357,,,,,,,,,,,,,,,
211411857,14,Pacific,1464,12600 VILLAGE LN,,33.9778,-118.4145,,,,,,,,,,,,,,,
210812432,8,West LA,882,COLBY AV,OLYMPIC BL,34.0373,-118.4462,,,,,,,,,,,,,,,
210310891,3,Southwest,338,1200 W 29TH ST,,34.0284,-118.2866,,,,,,,,,,,,,,,
210809682,8,West LA,884,2400 S SEPULVEDA BL,,34.0364,-118.4346,,,,,,,,,,,,,,,
221404271,14,Pacific,1493,12000 VISTA DEL MAR,,33.9308,-118.4349,,,,,,,,,,,,,,,
211507216,15,N Hollywood,1517,VANOWEN ST,ENSIGN AV,34.194,-118.3714,,,,,,,,,,,,,,,
210711827,7,Wilshire,701,8000 CLINTON ST,,34.0816,-118.3648,,,,,,,,,,,,,,,
211420033,14,Pacific,1454,13400 MAXELLA AV,,33.987,-118.4407,,,,,,,,,,,,,,,
210106247,1,Central,174,800 S LOS ANGELES ST,,34.0426,-118.2528,,,,,,,,,,,,,,,
210207275,2,Rampart,218,1000 LAGUNA AV,,34.0745,-118.2578,,,,,,,,,,,,,,,
211516327,15,N Hollywood,1555,11000 HESBY ST,,34.162,-118.3704,,,,,,,,,,,,,,,
211415695,14,Pacific,1463,13100 FOUNTAIN PARK DR,,33.9747,-118.4287,,,,,,,,,,,,,,,
212017376,20,Olympic,2024,3600 WILSHIRE BL,,34.0636,-118.3047,,,,,,,,,,,,,,,
210319423,3,Southwest,399,4300 S FIGUEROA ST,,34.0075,-118.2819,,,,,,,,,,,,,,,
210114897,1,Central,157,500 S SAN PEDRO ST,,34.0438,-118.2441,,,,,,,,,,,,,,,
210618798,6,Hollywood,647,6200 HOLLYWOOD BL,,34.1016,-118.3252,,,,,,,,,,,,,,,
210410623,4,Hollenbeck,439,2000 BARNETT WY,,34.0665,-118.1727,,,,,,,,,,,,,,,
212004764,20,Olympic,2027,3300 WILSHIRE BL,,34.0636,-118.296,,,,,,,,,,,,,,,
210309832,3,Southwest,308,2300 S UNION AV,,34.0347,-118.2836,,,,,,,,,,,,,,,
211408248,14,Pacific,1438,VENICE BL,OVERLAND AV,34.0188,-118.407,,,,,,,,,,,,,,,
211412720,14,Pacific,1432,PALMS BL,LINCOLN BL,33.9971,-118.459,,,,,,,,,,,,,,,
211416010,14,Pacific,1465,5400 INGLEWOOD BL,,33.9856,-118.4072,,,,,,,,,,,,,,,
210412306,4,Hollenbeck,421,2100 MANITOU AV,,34.0718,-118.218,,,,,,,,,,,,,,,
210108982,1,Central,162,800 S GRAND AV,,34.0447,-118.259,,,,,,,,,,,,,,,
212009994,20,Olympic,2029,SHATTO,WILSHIRE,34.0618,-118.2899,,,,,,,,,,,,,,,
210108085,1,Central,132,200 S OLIVE ST,,34.0532,-118.2494,,,,,,,,,,,,,,,
211411885,14,Pacific,1412,OCEAN FRONT WK,NAVY ST,33.9958,-118.4816,,,,,,,,,,,,,,,
210115789,1,Central,145,400 S MAIN ST,,34.0478,-118.2475,,,,,,,,,,,,,,,
220804036,8,West LA,882,11300 W PICO BL,,34.038,-118.4436,,,,,,,,,,,,,,,
210300718,3,Southwest,358,600 MCCARTHY WY,,34.0215,-118.2868,,,,,,,,,,,,,,,
212011474,20,Olympic,2023,300 S OXFORD AV,,34.0671,-118.3078,,,,,,,,,,,,,,,
210812104,8,West LA,832,11600 DARLINGTON AV,,34.0507,-118.4667,,,,,,,,,,,,,,,
211420665,14,Pacific,1487,8800 S SEPULVEDA BL,,33.9568,-118.3962,,,,,,,,,,,,,,,
211113270,11,Northeast,1145,GLENDALE BL,SILVER LAKE BL,34.1008,-118.2592,,,,,,,,,,,,,,,
210117639,1,Central,158,WILDE,KOHLER,34.0388,-118.2411,,,,,,,,,,,,,,,
210312138,3,Southwest,377,1200 W 39TH PL,,34.0142,-118.2987,,,,,,,,,,,,,,,
211115672,11,Northeast,1144,1800 LUCILE AV,,34.0957,-118.2742,,,,,,,,,,,,,,,
212017297,20,Olympic,2022,500 S GRAMERCY PL,,34.0635,-118.3128,,,,,,,,,,,,,,,
210210085,2,Rampart,261,2500 W 8TH ST,,34.0568,-118.2821,,,,,,,,,,,,,,,
211405977,14,Pacific,1464,12700 MILLENNIUM DR,,33.9754,-118.4178,,,,,,,,,,,,,,,
211106158,11,Northeast,1172,1400 SILVER LAKE BL,,34.0848,-118.2712,,,,,,,,,,,,,,,
210808315,8,West LA,892,11300 EXPOSITION BL,,34.0345,-118.4383,,,,,,,,,,,,,,,
210320044,3,Southwest,325,2700 MENLO AV,,34.0299,-118.2903,,,,,,,,,,,,,,,
210805998,8,West LA,886,2700 FORRESTER DR,,34.0428,-118.4029,,,,,,,,,,,,,,,
210114357,1,Central,159,600 S SANTA FE AV,,34.0364,-118.2303,,,,,,,,,,,,,,,
210108404,1,Central,162,600 W 9TH ST,,34.0462,-118.2585,,,,,,,,,,,,,,,
210810676,8,West LA,882,2100 BELOIT AV,,34.0388,-118.4403,,,,,,,,,,,,,,,
210812203,8,West LA,841,1200 MCCLELLAN DR,,34.0422,-118.4696,,,,,,,,,,,,,,,
211116210,11,Northeast,1117,2200 NORWALK AV,,34.1325,-118.2161,,,,,,,,,,,,,,,
211105494,11,Northeast,1117,2200 ADDISON WY,,34.1343,-118.2156,,,,,,,,,,,,,,,
210110233,1,Central,119,800 N ALAMEDA ST,,34.0561,-118.2375,,,,,,,,,,,,,,,
211111498,11,Northeast,1128,100 S AVENUE 63,,34.1147,-118.1827,,,,,,,,,,,,,,,
211420992,14,Pacific,1432,1600 ABBOT KINNEY BL,,33.9934,-118.46,,,,,,,,,,,,,,,
210112889,1,Central,119,800 N ALAMEDA ST,,34.0561,-118.2375,,,,,,,,,,,,,,,
210211885,2,Rampart,204,600 MICHELTORENA ST,,34.0857,-118.2812,,,,,,,,,,,,,,,
211408928,14,Pacific,1443,BOCCACCIO AV,ZENO PL,33.9888,-118.458,,,,,,,,,,,,,,,
210812760,8,West LA,882,11200 MISSISSIPPI AV,,34.0399,-118.442,,,,,,,,,,,,,,,
210815705,8,West LA,893,11200 RICHLAND AV,,34.0324,-118.4337,,,,,,,,,,,,,,,
211004269,10,West Valley,1023,7000 WILBUR AV,,34.1975,-118.5448,,,,,,,,,,,,,,,
210309653,3,Southwest,358,3600 MCCLINTOCK AV,,34.021,-118.2897,,,,,,,,,,,,,,,
211422413,14,Pacific,1433,2300 PENMAR AV,,33.9954,-118.4515,,,,,,,,,,,,,,,
210816193,8,West LA,836,2000 OVERLAND AV,,34.0474,-118.4294,,,,,,,,,,,,,,,
211714069,17,Devonshire,1764,9300 TAMPA AV,,34.244,-118.5583,,,,,,,,,,,,,,,
210111113,1,Central,138,500 E 4TH ST,,34.0468,-118.2415,,,,,,,,,,,,,,,
210816651,8,West LA,851,1500 S SALTAIR AV,,34.0406,-118.4619,,,,,,,,,,,,,,,
210105501,1,Central,182,1100 S GRAND AV,,34.0405,-118.263,,,,,,,,,,,,,,,
210816026,8,West LA,835,1700 CAMDEN AV,,34.0478,-118.4418,,,,,,,,,,,,,,,
210814334,8,West LA,832,11600 MAYFIELD AV,,34.0531,-118.4618,,,,,,,,,,,,,,,
211416585,14,Pacific,1407,3700 VINTON AV,,34.0215,-118.4033,,,,,,,,,,,,,,,
210411202,4,Hollenbeck,424,3500 MANITOU AV,,34.072,-118.2039,,,,,,,,,,,,,,,
210312256,3,Southwest,329,3000 S FLOWER ST,,34.0236,-118.2773,,,,,,,,,,,,,,,
211405587,14,Pacific,1483,8700 PERSHING DR,,33.9538,-118.4407,,,,,,,,,,,,,,,
210106187,1,Central,174,800 S LOS ANGELES ST,,34.0426,-118.2528,,,,,,,,,,,,,,,
211412294,14,Pacific,1452,MARQUESAS WY,VIA DOLCE,33.9764,-118.4602,,,,,,,,,,,,,,,
210616917,6,Hollywood,627,2200 N BEACHWOOD DR,,34.1227,-118.3181,,,,,,,,,,,,,,,
210813054,8,West LA,828,10800 WILSHIRE BL,,34.0649,-118.4372,,,,,,,,,,,,,,,
210805555,8,West LA,836,1800 THAYER AV,,34.0551,-118.4264,,,,,,,,,,,,,,,
210618841,6,Hollywood,647,VINE,SELMA,34.0998,-118.3267,,,,,,,,,,,,,,,
210616715,6,Hollywood,645,6800 HOLLYWOOD BL,,34.1016,-118.3391,,,,,,,,,,,,,,,
210905710,9,Van Nuys,969,5000 COLDWATER CANYON AV,,34.1613,-118.4138,,,,,,,,,,,,,,,
212105583,21,Topanga,2157,21000 VANOWEN ST,,34.1938,-118.5911,,,,,,,,,,,,,,,
211711496,17,Devonshire,1743,10300 RESEDA BL,,34.2573,-118.5361,,,,,,,,,,,,,,,
210310744,3,Southwest,336,1800 W JEFFERSON BL,,34.0282,-118.3133,,,,,,,,,,,,,,,
210318732,3,Southwest,338,3100 ORCHARD AV,,34.0261,-118.2882,,,,,,,,,,,,,,,
211516500,15,N Hollywood,1586,4000 WILLOW CREST AV,,34.1417,-118.3628,,,,,,,,,,,,,,,
211411688,14,Pacific,1416,CENTINELA AV,PALMS BL,34.011,-118.4391,,,,,,,,,,,,,,,
210814105,8,West LA,853,1500 SAWTELLE BL,,34.0471,-118.449,,,,,,,,,,,,,,,
211114845,11,Northeast,1136,4300 EAGLE ROCK BL,,34.1227,-118.2232,,,,,,,,,,,,,,,
210809597,8,West LA,839,1900 AVENUE OF THE STARS,,34.0601,-118.4175,,,,,,,,,,,,,,,
210507009,5,Harbor,563,1000 S GRAND AV,,33.7343,-118.2902,,,,,,,,,,,,,,,
211409273,14,Pacific,1444,JEFFERSON,LINCOLN,33.9881,-118.4456,,,,,,,,,,,,,,,
210118549,1,Central,185,1000 S BROADWAY,,34.0406,-118.2578,,,,,,,,,,,,,,,
211513415,15,N Hollywood,1565,11300 MOORPARK ST,,34.1504,-118.3773,,,,,,,,,,,,,,,
211515659,15,N Hollywood,1538,5600 FAIR AV,,34.1722,-118.3746,,,,,,,,,,,,,,,
211508889,15,N Hollywood,1545,12000 MAGNOLIA BL,,34.1649,-118.3947,,,,,,,,,,,,,,,
210812379,8,West LA,827,11600 CHENAULT ST,,34.0563,-118.4677,,,,,,,,,,,,,,,
211413079,14,Pacific,1464,12800 W RUNWAY RD,,33.9753,-118.4197,,,,,,,,,,,,,,,
210813347,8,West LA,831,11900 GOSHEN AV,,34.0458,-118.4673,,,,,,,,,,,,,,,
211410444,14,Pacific,1415,PENMAR,PALMS,34.0019,-118.4566,,,,,,,,,,,,,,,
210406990,4,Hollenbeck,429,5300 CRONUS ST,,34.083,-118.1678,,,,,,,,,,,,,,,
210317918,3,Southwest,358,WATT WY,37TH PL,34.0215,-118.2868,,,,,,,,,,,,,,,
212114490,21,Topanga,2134,SHERMAN WY,TOPANGA CANYON BL,34.201,-118.606,,,,,,,,,,,,,,,
211008079,10,West Valley,1091,4100 COLDSTREAM TR,,34.1437,-118.5631,,,,,,,,,,,,,,,
211419159,14,Pacific,1406,3400 KEYSTONE AV,,34.0253,-118.4107,,,,,,,,,,,,,,,
211415371,14,Pacific,1425,11400 NATIONAL BL,,34.0256,-118.4328,,,,,,,,,,,,,,,
210705542,7,Wilshire,719,500 N ARDEN BL,,34.0789,-118.326,,,,,,,,,,,,,,,
210207071,2,Rampart,219,700 E KENSINGTON RD,,34.0672,-118.2526,,,,,,,,,,,,,,,
210810600,8,West LA,853,1500 BELOIT AV,,34.0483,-118.4485,,,,,,,,,,,,,,,
210910988,9,Van Nuys,911,15400 VANOWEN ST,,34.1939,-118.4687,,,,,,,,,,,,,,,
211406389,14,Pacific,1454,13200 FIJI WY,,33.9792,-118.4355,,,,,,,,,,,,,,,
210807245,8,West LA,847,2300 OVERLAND AV,,34.0429,-118.4255,,,,,,,,,,,,,,,
211506600,15,N Hollywood,1555,LANKERSHIM,HESBY,34.1621,-118.3729,,,,,,,,,,,,,,,
211412452,14,Pacific,1483,8700 PERSHING DR,,33.9538,-118.4407,,,,,,,,,,,,,,,
211517768,15,N Hollywood,1566,10800 WHIPPLE ST,,34.1481,-118.365,,,,,,,,,,,,,,,
211415300,14,Pacific,1414,600 SUNSET AV,,33.9975,-118.4705,,,,,,,,,,,,,,,
211422354,14,Pacific,1444,13700 MARINA POINTE DR,,33.9849,-118.4445,,,,,,,,,,,,,,,
210119832,1,Central,182,700 W 9TH ST,,34.0458,-118.2614,,,,,,,,,,,,,,,
211418306,14,Pacific,1433,1100 NOWITA PL,,33.9988,-118.4568,,,,,,,,,,,,,,,
210306588,3,Southwest,338,3100 S HOOVER ST,,34.0268,-118.2896,,,,,,,,,,,,,,,
210509525,5,Harbor,564,PALOS VERDES ST,5TH ST,33.7403,-118.2814,,,,,,,,,,,,,,,
211114747,11,Northeast,1132,3900 LOS FELIZ BL,,34.1136,-118.2775,,,,,,,,,,,,,,,
210211190,2,Rampart,246,600 S ALVARADO ST,,34.0593,-118.275,,,,,,,,,,,,,,,
210111912,1,Central,161,700 S FIGUEROA ST,,34.0483,-118.2631,,,,,,,,,,,,,,,
211912409,19,Mission,1972,15100 RAYEN ST,,34.2337,-118.463,,,,,,,,,,,,,,,
211417924,14,Pacific,1413,1300 ABBOT KINNEY BL,,33.9956,-118.4722,,,,,,,,,,,,,,,
212116596,21,Topanga,2143,22900 VICTORY BL,,34.1865,-118.6256,,,,,,,,,,,,,,,
211404431,14,Pacific,1458,11300 CULVER BL,,33.9996,-118.4144,,,,,,,,,,,,,,,
210806732,8,West LA,832,11600 DARLINGTON AV,,34.0507,-118.4667,,,,,,,,,,,,,,,
210610760,6,Hollywood,645,7000 LANEWOOD AV,,34.0992,-118.3417,,,,,,,,,,,,,,,
210610527,6,Hollywood,648,N WESTERN AV,HOLLYWOOD BL,34.1018,-118.3093,,,,,,,,,,,,,,,
210804487,8,West LA,884,PICO BL,WESTWOOD BL,34.0402,-118.4283,,,,,,,,,,,,,,,
210106206,1,Central,159,600 S SANTA FE AV,,34.0364,-118.2303,,,,,,,,,,,,,,,
221404916,14,Pacific,1457,12200 HAVELOCK AV,,33.9889,-118.4153,,,,,,,,,,,,,,,
210807837,8,West LA,832,900 GRANVILLE AV,,34.0516,-118.4663,,,,,,,,,,,,,,,
211410920,14,Pacific,1431,17TH,OCEAN FRONT WK,33.9866,-118.4728,,,,,,,,,,,,,,,
220804802,8,West LA,848,2300 FOX HILLS DR,,34.0508,-118.415,,,,,,,,,,,,,,,
211707068,17,Devonshire,1723,20500 CELTIC ST,,34.2713,-118.5827,,,,,,,,,,,,,,,
210815311,8,West LA,891,11800 W PICO BL,,34.0307,-118.4475,,,,,,,,,,,,,,,
211116610,11,Northeast,1173,1800 CERRO GORDO ST,,34.0932,-118.2495,,,,,,,,,,,,,,,
211418778,14,Pacific,1445,12700 MITCHELL AV,,33.997,-118.4373,,,,,,,,,,,,,,,
211420269,14,Pacific,1444,13600 MARINA POINTE DR,,33.9849,-118.4445,,,,,,,,,,,,,,,
211408923,14,Pacific,1456,11700 COURTLEIGH DR,,33.9974,-118.4188,,,,,,,,,,,,,,,
210122887,1,Central,176,200 E 8TH ST,,34.0413,-118.2517,,,,,,,,,,,,,,,
210619875,6,Hollywood,647,6200 HOLLYWOOD BL,,34.1016,-118.3252,,,,,,,,,,,,,,,
212015409,20,Olympic,2081,1800 S WILTON PL,,34.0408,-118.3144,,,,,,,,,,,,,,,
210812990,8,West LA,892,11500 W PICO BL,,34.0321,-118.4399,,,,,,,,,,,,,,,
211414695,14,Pacific,1413,500 INDIANA AV,,33.9951,-118.4715,,,,,,,,,,,,,,,
211906961,19,Mission,1985,CHASE ST,VESPER AV,34.2247,-118.4503,,,,,,,,,,,,,,,
210808339,8,West LA,884,11000 W PICO BL,,34.0383,-118.4325,,,,,,,,,,,,,,,
210318242,3,Southwest,328,700 W 27TH ST,,34.0281,-118.2788,,,,,,,,,,,,,,,
210809613,8,West LA,833,10900 OHIO AV,,34.0565,-118.4427,,,,,,,,,,,,,,,
210320700,3,Southwest,357,3500 S CATALINA ST,,34.0236,-118.2938,,,,,,,,,,,,,,,
210109763,1,Central,154,500 S LOS ANGELES ST,,34.046,-118.2493,,,,,,,,,,,,,,,
211410881,14,Pacific,1477,8000 S SEPULVEDA BL,,33.9642,-118.3962,,,,,,,,,,,,,,,
211511601,15,N Hollywood,1548,CHANDLER,TUJUNGA,34.1681,-118.379,,,,,,,,,,,,,,,
210814619,8,West LA,831,800 S BUNDY DR,,34.0504,-118.4724,,,,,,,,,,,,,,,
211417948,14,Pacific,1412,200 ROSE AV,,33.9961,-118.4777,,,,,,,,,,,,,,,
210810386,8,West LA,852,11600 IOWA AV,,34.0423,-118.4526,,,,,,,,,,,,,,,
211515848,15,N Hollywood,1567,4400 LANKERSHIM BL,,34.1504,-118.3659,,,,,,,,,,,,,,,
210808104,8,West LA,835,2000 CAMDEN AV,,34.0426,-118.4374,,,,,,,,,,,,,,,
210813057,8,West LA,881,1900 S BUNDY DR,,34.035,-118.4567,,,,,,,,,,,,,,,
210809713,8,West LA,802,1000 VIA DE LA PAZ,,34.048,-118.5269,,,,,,,,,,,,,,,
211506291,15,N Hollywood,1548,11100 CHANDLER BL,,34.1681,-118.3725,,,,,,,,,,,,,,,
212017238,20,Olympic,2027,3200 W 6TH ST,,34.0636,-118.2923,,,,,,,,,,,,,,,
211819912,18,Southeast,1826,1600 E 103RD ST,,33.9485,-118.2461,,,,,,,,,,,,,,,
210614410,6,Hollywood,645,SUNSET,MANSFIELD,34.098,-118.3405,,,,,,,,,,,,,,,
211423253,14,Pacific,1415,1700 PENMAR AV,,34.0023,-118.4569,,,,,,,,,,,,,,,
221504378,15,N Hollywood,1549,5500 KLUMP AV,,34.17,-118.3752,,,,,,,,,,,,,,,
221704364,17,Devonshire,1764,PLUMMER ST,CORBIN AV,34.2427,-118.5623,,,,,,,,,,,,,,,
211422135,14,Pacific,1463,5300 PLAYA VISTA DR,,33.9749,-118.4281,,,,,,,,,,,,,,,
210607064,6,Hollywood,644,1400 N ALTA VISTA BL,,34.0964,-118.3471,,,,,,,,,,,,,,,
210811092,8,West LA,881,1900 S BARRINGTON AV,,34.0371,-118.4503,,,,,,,,,,,,,,,
210814177,8,West LA,848,2300 FOX HILLS DR,,34.0501,-118.4144,,,,,,,,,,,,,,,
210210084,2,Rampart,269,1200 W 8TH ST,,34.0496,-118.2677,,,,,,,,,,,,,,,
212015440,20,Olympic,2029,3100 WILSHIRE BL,,34.0652,-118.2878,,,,,,,,,,,,,,,
210809714,8,West LA,835,1900 WESTWOOD BL,,34.047,-118.4344,,,,,,,,,,,,,,,
210815244,8,West LA,836,1800 MANNING AV,,34.0521,-118.4308,,,,,,,,,,,,,,,
211412969,14,Pacific,1458,5000 S SLAUSON AV,,33.9954,-118.4097,,,,,,,,,,,,,,,
212015414,20,Olympic,2031,3900 W 8TH ST,,34.0599,-118.3139,,,,,,,,,,,,,,,
211404525,14,Pacific,1412,00 BROOKS AV,,33.9911,-118.4761,,,,,,,,,,,,,,,
211411094,14,Pacific,1467,CENTER DR,HOWARD HUGHES PARKWAY,33.9749,-118.3873,,,,,,,,,,,,,,,
210806858,8,West LA,832,800 GRANVILLE AV,,34.0526,-118.4674,,,,,,,,,,,,,,,
211421689,14,Pacific,1433,1000 SUPERBA AV,,33.9964,-118.4575,,,,,,,,,,,,,,,
211507218,15,N Hollywood,1517,11200 VANOWEN ST,,34.1938,-118.3757,,,,,,,,,,,,,,,
210119981,1,Central,182,HOPE,9TH,34.0451,-118.2604,,,,,,,,,,,,,,,
211411938,14,Pacific,1441,300 WASHINGTON BL,,33.9843,-118.4643,,,,,,,,,,,,,,,
211509760,15,N Hollywood,1585,4100 ARCH DR,,34.1417,-118.3719,,,,,,,,,,,,,,,
211404916,14,Pacific,1474,8400 LINCOLN BL,,33.9606,-118.42,,,,,,,,,,,,,,,
210113348,1,Central,144,400 S SPRING ST,,34.0482,-118.2489,,,,,,,,,,,,,,,
210219137,2,Rampart,236,300 N WESTLAKE AV,,34.0687,-118.2672,,,,,,,,,,,,,,,
210810150,8,West LA,839,10200 SANTA MONICA BL,,34.06,-118.42,,,,,,,,,,,,,,,
212010194,20,Olympic,2036,WILSHIRE BL,NEW HAMPSHIRE AV,34.0618,-118.2929,,,,,,,,,,,,,,,
210807531,8,West LA,883,SEPULVEDA BL,PICO BL,34.0373,-118.4354,,,,,,,,,,,,,,,
210118689,1,Central,162,700 S GRAND AV,,34.0469,-118.2569,,,,,,,,,,,,,,,
210707991,7,Wilshire,701,800 N FAIRFAX AV,,34.0855,-118.3615,,,,,,,,,,,,,,,
211407646,14,Pacific,1415,1000 ELKGROVE AV,,34,-118.4598,,,,,,,,,,,,,,,
220104221,1,Central,132,200 S OLIVE ST,,34.0535,-118.2491,,,,,,,,,,,,,,,
210804915,8,West LA,836,1800 THAYER AV,,34.0551,-118.4264,,,,,,,,,,,,,,,
210815696,8,West LA,835,1800 SELBY AV,,34.0504,-118.4333,,,,,,,,,,,,,,,
210104576,1,Central,162,600 W 9TH ST,,34.0462,-118.2585,,,,,,,,,,,,,,,
210109303,1,Central,182,12TH ST,HOPE ST,34.0408,-118.2644,,,,,,,,,,,,,,,
211509758,15,N Hollywood,1549,5500 KLUMP AV,,34.17,-118.3752,,,,,,,,,,,,,,,
210118482,1,Central,165,600 WALL ST,,34.0433,-118.2488,,,,,,,,,,,,,,,
211113078,11,Northeast,1144,1700 GRIFFITH PARK BL,,34.0977,-118.274,,,,,,,,,,,,,,,
210817334,8,West LA,817,10800 WEYBURN AV,,34.0623,-118.4434,,,,,,,,,,,,,,,
210108421,1,Central,182,1000 S GRAND AV,,34.0421,-118.2614,,,,,,,,,,,,,,,
211419450,14,Pacific,1483,8100 MANITOBA ST,,33.955,-118.4382,,,,,,,,,,,,,,,
211515126,15,N Hollywood,1535,5600 CAMELLIA AV,,34.1722,-118.3822,,,,,,,,,,,,,,,
210605446,6,Hollywood,663,HIGHLAND,SANTA MONICA,34.0907,-118.3386,,,,,,,,,,,,,,,
210813061,8,West LA,882,1900 SAWTELLE BL,,34.041,-118.4437,,,,,,,,,,,,,,,
210119708,1,Central,182,1200 S HOPE ST,,34.0406,-118.2646,,,,,,,,,,,,,,,
211405783,14,Pacific,1434,3700 S CENTINELA AV,,34.0038,-118.4423,,,,,,,,,,,,,,,
211707970,17,Devonshire,1798,BAHAMA ST,GAYNOR AV,34.2329,-118.4819,,,,,,,,,,,,,,,
210913342,9,Van Nuys,963,15100 HESBY ST,,34.1621,-118.464,,,,,,,,,,,,,,,
210815697,8,West LA,827,500 S BARRINGTON AV,,34.0604,-118.4684,,,,,,,,,,,,,,,
211422998,14,Pacific,1431,1900 PACIFIC AV,,33.9859,-118.4707,,,,,,,,,,,,,,,
210714431,7,Wilshire,752,1000 S FAIRFAX AV,,34.0558,-118.3706,,,,,,,,,,,,,,,
210904461,9,Van Nuys,914,SHERMAN CR,GAULT ST,34.1976,-118.4574,,,,,,,,,,,,,,,
210806404,8,West LA,833,10900 OHIO AV,,34.0565,-118.4427,,,,,,,,,,,,,,,
211509132,15,N Hollywood,1596,11100 SUNSHINE TR,,34.1394,-118.3747,,,,,,,,,,,,,,,
210805803,8,West LA,835,1800 KELTON AV,,34.0487,-118.4386,,,,,,,,,,,,,,,
212010139,20,Olympic,2071,1300 S GRAMERCY PL,,34.0453,-118.313,,,,,,,,,,,,,,,
210715076,7,Wilshire,701,500 N FAIRFAX AV,,34.0847,-118.3686,,,,,,,,,,,,,,,
211410795,14,Pacific,1467,5900 W CENTER DR,,33.9751,-118.3873,,,,,,,,,,,,,,,
211412670,14,Pacific,1412,00 ROSE AV,,33.9947,-118.4803,,,,,,,,,,,,,,,
210808334,8,West LA,842,1400 BUTLER AV,,34.048,-118.4541,,,,,,,,,,,,,,,
210114526,1,Central,105,400 BERNARD ST,,34.0714,-118.2329,,,,,,,,,,,,,,,
210218748,2,Rampart,233,200 S CORONADO ST,,34.0697,-118.2779,,,,,,,,,,,,,,,
210813103,8,West LA,893,2700 KELTON AV,,34.0322,-118.4247,,,,,,,,,,,,,,,
211408386,14,Pacific,1409,3700 BAGLEY AV,,34.0259,-118.3955,,,,,,,,,,,,,,,
210122291,1,Central,182,1000 S GRAND AV,,34.0421,-118.2614,,,,,,,,,,,,,,,
221405602,14,Pacific,1425,NATIONAL BL,S BARRINGTON AV,34.0227,-118.4386,,,,,,,,,,,,,,,
211116508,11,Northeast,1145,2500 GLENDALE BL,,34.1025,-118.2592,,,,,,,,,,,,,,,
211408134,14,Pacific,1454,13400 MAXELLA AV,,33.987,-118.4407,,,,,,,,,,,,,,,
210120703,1,Central,162,800 S HOPE ST,,34.046,-118.2595,,,,,,,,,,,,,,,
211409187,14,Pacific,1438,3700 OVERLAND AV,,34.0199,-118.4125,,,,,,,,,,,,,,,
211420270,14,Pacific,1454,13400 MAXELLA AV,,33.987,-118.4407,,,,,,,,,,,,,,,
210816713,8,West LA,835,MISSISSIPPI AV,WESTWOOD BL,34.0453,-118.4329,,,,,,,,,,,,,,,
211410196,14,Pacific,1464,12800 W RUNWAY RD,,33.9753,-118.4197,,,,,,,,,,,,,,,
210312883,3,Southwest,319,1900 ESTRELLA AV,,34.0336,-118.2756,,,,,,,,,,,,,,,
210116731,1,Central,159,600 S SANTA FE AV,,34.0364,-118.2303,,,,,,,,,,,,,,,
211411193,14,Pacific,1413,200 4TH AV,,33.9987,-118.4763,,,,,,,,,,,,,,,
211420410,14,Pacific,1444,4000 LINCOLN BL,,33.99,-118.4474,,,,,,,,,,,,,,,
210110426,1,Central,182,1200 S HOPE ST,,34.0406,-118.2646,,,,,,,,,,,,,,,
210709277,7,Wilshire,762,1500 STEARNS DR,,34.049,-118.372,,,,,,,,,,,,,,,
210816000,8,West LA,855,1600 CAMDEN AV,,34.0487,-118.4426,,,,,,,,,,,,,,,
212015831,20,Olympic,2033,600 S WESTERN AV,,34.0568,-118.3091,,,,,,,,,,,,,,,
211414967,14,Pacific,1413,300 VERNON AV,,33.9943,-118.4748,,,,,,,,,,,,,,,
210713293,7,Wilshire,736,300 S COCHRAN AV,,34.0687,-118.3472,,,,,,,,,,,,,,,
211509586,15,N Hollywood,1545,5400 CARPENTER AV,,34.1687,-118.3911,,,,,,,,,,,,,,,
211419927,14,Pacific,1464,12700 MILLENNIUM DR,,33.9754,-118.4178,,,,,,,,,,,,,,,
210814722,8,West LA,853,11300 IOWA AV,,34.0448,-118.4484,,,,,,,,,,,,,,,
210706368,7,Wilshire,782,VENICE BL,KAISER WY,34.0384,-118.3723,,,,,,,,,,,,,,,
210812139,8,West LA,847,2300 S BEVERLY GLEN BL,,34.0478,-118.4184,,,,,,,,,,,,,,,
210710229,7,Wilshire,745,5500 WILSHIRE BL,,34.0623,-118.3494,,,,,,,,,,,,,,,
210120804,1,Central,166,7TH,SAN JULIAN,34.0412,-118.2474,,,,,,,,,,,,,,,
211110429,11,Northeast,1149,5400 N FIGUEROA ST,,34.1076,-118.1969,,,,,,,,,,,,,,,
211413026,14,Pacific,1464,RUNWAY,MCCONNELL,33.9759,-118.4181,,,,,,,,,,,,,,,
210808918,8,West LA,835,1900 MALCOLM AV,,34.0478,-118.4324,,,,,,,,,,,,,,,
211713916,17,Devonshire,1785,18100 NORDHOFF ST,,0,0,,,,,,,,,,,,,,,
210210829,2,Rampart,205,2700 BELLEVUE AV,,34.0804,-118.275,,,,,,,,,,,,,,,
210816432,8,West LA,841,12100 TEXAS AV,,34.0426,-118.4665,,,,,,,,,,,,,,,
211107149,11,Northeast,1145,2200 INDIA ST,,34.103,-118.2555,,,,,,,,,,,,,,,
211010199,10,West Valley,1018,16100 CANTLAY ST,,34.2022,-118.4837,,,,,,,,,,,,,,,
210804607,8,West LA,898,9100 OLIN ST,,34.037,-118.3905,,,,,,,,,,,,,,,
210805227,8,West LA,881,11900 TENNESSEE PL,,34.0301,-118.451,,,,,,,,,,,,,,,
210814513,8,West LA,897,9300 NATIONAL BL,,34.0313,-118.3947,,,,,,,,,,,,,,,
210809911,8,West LA,827,11600 MONTANA AV,,34.0562,-118.4656,,,,,,,,,,,,,,,
210121267,1,Central,182,1200 S HILL ST,,34.042,-118.2625,,,,,,,,,,,,,,,
210315203,3,Southwest,338,3100 WALTON AV,,34.0264,-118.2948,,,,,,,,,,,,,,,
211105694,11,Northeast,1142,4400 FRANKLIN AV,,34.1054,-118.2856,,,,,,,,,,,,,,,
210119075,1,Central,171,1000 W OLYMPIC BL,,34.0461,-118.2674,,,,,,,,,,,,,,,
211415446,14,Pacific,1413,300 6TH AV,,33.9956,-118.4722,,,,,,,,,,,,,,,
210812805,8,West LA,853,1600 BELOIT AV,,34.0472,-118.4475,,,,,,,,,,,,,,,
220104795,1,Central,176,200 E 8TH ST,,34.0419,-118.2523,,,,,,,,,,,,,,,
211422077,14,Pacific,1415,1000 ELKGROVE AV,,34,-118.4598,,,,,,,,,,,,,,,
210806241,8,West LA,835,1900 OVERLAND AV,,34.0462,-118.4361,,,,,,,,,,,,,,,
212018530,20,Olympic,2033,3600 WILSHIRE BL,,34.0617,-118.3087,,,,,,,,,,,,,,,
210809782,8,West LA,881,11700 W OLYMPIC BL,,34.034,-118.4482,,,,,,,,,,,,,,,
210717019,7,Wilshire,702,900 N MARTEL AV,,34.0871,-118.3511,,,,,,,,,,,,,,,
220804069,8,West LA,881,11800 LA GRANGE AV,,34.0359,-118.4522,,,,,,,,,,,,,,,
211704875,17,Devonshire,1791,20100 ROSCOE BL,,34.2244,-118.5804,,,,,,,,,,,,,,,
211705240,17,Devonshire,1783,19100 NORDHOFF ST,,34.2355,-118.5497,,,,,,,,,,,,,,,
210815226,8,West LA,853,1800 CORINTH AV,,34.0425,-118.4464,,,,,,,,,,,,,,,
211507214,15,N Hollywood,1596,RIDGEMOOR DR,VENTURA BL,34.1395,-118.3805,,,,,,,,,,,,,,,
210706956,7,Wilshire,743,700 S SPAULDING AV,,34.0618,-118.3579,,,,,,,,,,,,,,,
212018795,20,Olympic,2023,300 S ARDMORE AV,,34.0672,-118.3016,,,,,,,,,,,,,,,
211418642,14,Pacific,1425,11600 NATIONAL BL,,34.0235,-118.4371,,,,,,,,,,,,,,,
210806783,8,West LA,893,2500 S SEPULVEDA BL,,34.0348,-118.4339,,,,,,,,,,,,,,,
211410710,14,Pacific,1467,5900 W CENTER DR,,33.9751,-118.3873,,,,,,,,,,,,,,,
211408410,14,Pacific,1441,400 S VENICE BL,,33.9858,-118.4676,,,,,,,,,,,,,,,
210711381,7,Wilshire,733,600 S CURSON AV,,34.0642,-118.3546,,,,,,,,,,,,,,,
210808723,8,West LA,831,11900 MONTANA AV,,34.0473,-118.4768,,,,,,,,,,,,,,,
211115462,11,Northeast,1189,3400 ARROYO SECO AV,,34.0867,-118.2172,,,,,,,,,,,,,,,
211419955,14,Pacific,1413,900 4TH AV,,33.9934,-118.4715,,,,,,,,,,,,,,,
210113029,1,Central,182,1200 S HOPE ST,,34.0406,-118.2646,,,,,,,,,,,,,,,
211114527,11,Northeast,1112,4200 VERDUGO RD,,34.1271,-118.2321,,,,,,,,,,,,,,,
210807152,8,West LA,852,1700 GRANVILLE AV,,34.0388,-118.4547,,,,,,,,,,,,,,,
211709168,17,Devonshire,1757,16600 SEPTO ST,,34.2516,-118.4948,,,,,,,,,,,,,,,
210319500,3,Southwest,313,4000 W 28TH ST,,34.0314,-118.3292,,,,,,,,,,,,,,,
210316410,3,Southwest,357,1100 W 36TH ST,,34.0231,-118.292,,,,,,,,,,,,,,,
211423628,14,Pacific,1415,900 FLOWER AV,,34.0019,-118.4645,,,,,,,,,,,,,,,
211406509,14,Pacific,1407,3600 JASMINE AV,,34.0239,-118.4035,,,,,,,,,,,,,,,
211411559,14,Pacific,1457,4600 STONER AV,,33.9943,-118.4133,,,,,,,,,,,,,,,
210305257,3,Southwest,318,2500 S HOOVER ST,,34.0348,-118.2876,,,,,,,,,,,,,,,
210110475,1,Central,185,9TH,BROADWAY,34.0419,-118.2561,,,,,,,,,,,,,,,
210619364,6,Hollywood,628,5800 FRANKLIN AV,,34.1052,-118.3193,,,,,,,,,,,,,,,
211422827,14,Pacific,1474,W 80TH ST,LOYOLA BL,33.9659,-118.4167,,,,,,,,,,,,,,,
210316291,3,Southwest,328,2600 PORTLAND ST,,34.0301,-118.2826,,,,,,,,,,,,,,,
210816173,8,West LA,853,1700 SAWTELLE BL,,34.0439,-118.4462,,,,,,,,,,,,,,,
210208898,2,Rampart,275,1000 S UNION AV,,34.0506,-118.2769,,,,,,,,,,,,,,,
210814034,8,West LA,832,11600 MAYFIELD AV,,34.0531,-118.4618,,,,,,,,,,,,,,,
211013164,10,West Valley,1043,18500 COLLINS ST,,34.1745,-118.5407,,,,,,,,,,,,,,,
211111885,11,Northeast,1183,GLENDALE BL,BRANDEN ST,34.0879,-118.2596,,,,,,,,,,,,,,,
210810675,8,West LA,827,11700 W SUNSET BL,,34.0646,-118.4707,,,,,,,,,,,,,,,
210316633,3,Southwest,338,1200 W 30TH ST,,34.0274,-118.29,,,,,,,,,,,,,,,
211106955,11,Northeast,1141,1700 N VERMONT AV,,34.1095,-118.2958,,,,,,,,,,,,,,,
210319709,3,Southwest,338,1200 W 30TH ST,,34.0274,-118.29,,,,,,,,,,,,,,,
210713061,7,Wilshire,722,8300 BLACKBURN AV,,34.0717,-118.3702,,,,,,,,,,,,,,,
210117122,1,Central,157,500 S SAN PEDRO ST,,34.0438,-118.2441,,,,,,,,,,,,,,,
211709260,17,Devonshire,1793,19100 PARTHENIA ST,,34.2282,-118.5514,,,,,,,,,,,,,,,
211406387,14,Pacific,1453,4100 REDWOOD AV,,33.9896,-118.439,,,,,,,,,,,,,,,
210807081,8,West LA,822,00 VISTA TR,,34.0366,-118.5362,,,,,,,,,,,,,,,
210805292,8,West LA,882,2000 BELOIT AV,,34.0407,-118.4419,,,,,,,,,,,,,,,
210618779,6,Hollywood,645,SYCAMORE,HOLLYWOOD,34.1015,-118.3434,,,,,,,,,,,,,,,
210805267,8,West LA,836,1900 OVERLAND AV,,34.0498,-118.4315,,,,,,,,,,,,,,,
211714618,17,Devonshire,1787,17800 HALSTED ST,,34.245,-118.5216,,,,,,,,,,,,,,,
211011007,10,West Valley,1015,7300 ZELZAH AV,,34.2034,-118.523,,,,,,,,,,,,,,,
210318243,3,Southwest,358,600 MCCARTHY WY,,34.0215,-118.2868,,,,,,,,,,,,,,,
211421912,14,Pacific,1407,10000 PALMS BL,,34.0288,-118.404,,,,,,,,,,,,,,,
210810896,8,West LA,852,STONER AV,SANTA MONICA BL,34.0433,-118.4571,,,,,,,,,,,,,,,
210116182,1,Central,152,5TH,HOPE,34.0491,-118.2558,,,,,,,,,,,,,,,
211507653,15,N Hollywood,1585,10900 BLUFFSIDE DR,,34.1412,-118.3681,,,,,,,,,,,,,,,
210710063,7,Wilshire,711,300 N ALFRED ST,,34.0761,-118.3753,,,,,,,,,,,,,,,
210715786,7,Wilshire,743,5600 W 8TH ST,,34.061,-118.3619,,,,,,,,,,,,,,,
210809805,8,West LA,849,1100 S WOOSTER ST,,34.0552,-118.3826,,,,,,,,,,,,,,,
211510570,15,N Hollywood,1548,5400 FAIR AV,,34.1681,-118.3743,,,,,,,,,,,,,,,
211412975,14,Pacific,1415,800 SUNSET AV,,34.0026,-118.4637,,,,,,,,,,,,,,,
211415692,14,Pacific,1444,1100 HARRISON AV,,33.9902,-118.4497,,,,,,,,,,,,,,,
210310075,3,Southwest,334,3500 EDGEHILL DR,,34.024,-118.3305,,,,,,,,,,,,,,,
210814472,8,West LA,882,2100 COLBY AV,,34.0359,-118.445,,,,,,,,,,,,,,,
211411322,14,Pacific,1453,4000 REDWOOD AV,,33.9906,-118.4391,,,,,,,,,,,,,,,
210907768,9,Van Nuys,971,4700 N SEPULVEDA BL,,34.1557,-118.4661,,,,,,,,,,,,,,,
211008322,10,West Valley,1061,5500 SHIRLEY AV,,34.1709,-118.5578,,,,,,,,,,,,,,,
210312712,3,Southwest,319,2300 SCARFF ST,,34.0316,-118.2808,,,,,,,,,,,,,,,
210606200,6,Hollywood,648,5500 HOLLYWOOD BL,,34.1017,-118.31,,,,,,,,,,,,,,,
211413607,14,Pacific,1406,3800 KEYSTONE AV,,34.0189,-118.4056,,,,,,,,,,,,,,,
211108377,11,Northeast,1149,5600 N FIGUEROA ST,,34.109,-118.194,,,,,,,,,,,,,,,
210612205,6,Hollywood,648,5500 HOLLYWOOD BL,,34.1017,-118.31,,,,,,,,,,,,,,,
210210221,2,Rampart,289,1500 W 12TH PL,,34.0447,-118.2747,,,,,,,,,,,,,,,
211416766,14,Pacific,1407,3800 DUNN DR,,34.0212,-118.3982,,,,,,,,,,,,,,,
211407393,14,Pacific,1431,RIALTO AV,RIVIERA AV,33.989,-118.469,,,,,,,,,,,,,,,
211409106,14,Pacific,1437,3600 S SEPULVEDA BL,,34.0164,-118.42,,,,,,,,,,,,,,,
210110605,1,Central,134,3RD,BROADWAY,34.051,-118.248,,,,,,,,,,,,,,,
210705511,7,Wilshire,735,5300 WILSHIRE BL,,34.0622,-118.344,,,,,,,,,,,,,,,
211508012,15,N Hollywood,1555,4800 KLUMP AV,,34.1576,-118.3757,,,,,,,,,,,,,,,
211507258,15,N Hollywood,1555,11300 RIVERSIDE DR,,34.1556,-118.3773,,,,,,,,,,,,,,,
210616222,6,Hollywood,647,W SUNSET BL,GORDON ST,0,0,,,,,,,,,,,,,,,
210119622,1,Central,141,300 S FIGUEROA ST,,34.0542,-118.2566,,,,,,,,,,,,,,,
211110225,11,Northeast,1152,4600 PROSPECT AV,,34.1018,-118.2911,,,,,,,,,,,,,,,
211423482,14,Pacific,1458,4900 COOLIDGE AV,,33.9964,-118.409,,,,,,,,,,,,,,,
211516264,15,N Hollywood,1567,RIVERSIDE DR,CAHUENGA BL,34.1522,-118.3615,,,,,,,,,,,,,,,
211105253,11,Northeast,1132,4100 LOS FELIZ BL,,34.113,-118.2814,,,,,,,,,,,,,,,
211513856,15,N Hollywood,1538,11200 OXNARD ST,,34.1794,-118.3758,,,,,,,,,,,,,,,
211422336,14,Pacific,1452,00 EASTWIND ST,,33.9766,-118.4643,,,,,,,,,,,,,,,
210318458,3,Southwest,327,1200 W ADAMS BL,,34.0328,-118.2865,,,,,,,,,,,,,,,
212008635,20,Olympic,2069,OLYMPIC BL,VERMONT AV,34.0526,-118.2916,,,,,,,,,,,,,,,
212017893,20,Olympic,2027,500 S NEW HAMPSHIRE AV,,34.0654,-118.2929,,,,,,,,,,,,,,,
210714977,7,Wilshire,765,4600 VENICE BL,,34.0472,-118.3372,,,,,,,,,,,,,,,
212008481,20,Olympic,2031,3900 W 8TH ST,,34.0599,-118.3139,,,,,,,,,,,,,,,
211413342,14,Pacific,1469,7000 ALVERN ST,,33.9762,-118.3767,,,,,,,,,,,,,,,
210806785,8,West LA,884,10800 W PICO BL,,34.0404,-118.4279,,,,,,,,,,,,,,,
212013175,20,Olympic,2021,500 S WILTON PL,,34.0653,-118.3183,,,,,,,,,,,,,,,
210917608,9,Van Nuys,914,14900 SHERMAN WY,,34.2011,-118.4588,,,,,,,,,,,,,,,
210807731,8,West LA,884,2400 S SEPULVEDA BL,,34.0364,-118.4346,,,,,,,,,,,,,,,
220604325,6,Hollywood,668,5500 W SUNSET BL,,34.0981,-118.3092,,,,,,,,,,,,,,,
210816029,8,West LA,823,14800 PAMPAS RICAS BL,,34.0407,-118.5195,,,,,,,,,,,,,,,
210604244,6,Hollywood,678,800 N HARVARD BL,,34.0849,-118.304,,,,,,,,,,,,,,,
211008651,10,West Valley,1049,6300 WOODLEY AV,,34.1822,-118.4836,,,,,,,,,,,,,,,
210315590,3,Southwest,357,1100 W 37TH ST,,34.021,-118.2921,,,,,,,,,,,,,,,
210115483,1,Central,157,600 CROCKER ST,,34.0414,-118.2446,,,,,,,,,,,,,,,
210716698,7,Wilshire,737,5200 WILSHIRE BL,,34.0622,-118.3434,,,,,,,,,,,,,,,
210716547,7,Wilshire,753,1000 S ORANGE GROVE AV,,34.0575,-118.363,,,,,,,,,,,,,,,
212008584,20,Olympic,2029,3100 WILSHIRE BL,,34.0652,-118.2878,,,,,,,,,,,,,,,
210307953,3,Southwest,327,2800 S HOOVER ST,,34.0305,-118.2865,,,,,,,,,,,,,,,
210713619,7,Wilshire,735,5600 WILSHIRE BL,,34.0633,-118.3473,,,,,,,,,,,,,,,
211014697,10,West Valley,1088,16800 VENTURA BL,,34.1588,-118.4993,,,,,,,,,,,,,,,
210607392,6,Hollywood,645,1400 N MANSFIELD AV,,34.0962,-118.3405,,,,,,,,,,,,,,,
210812878,8,West LA,842,11600 TEXAS AV,,34.0481,-118.4576,,,,,,,,,,,,,,,
210115127,1,Central,142,300 S GRAND AV,,34.0527,-118.2515,,,,,,,,,,,,,,,
210411521,4,Hollenbeck,443,VALLEY BL,SAN PABLO ST,34.0655,-118.2022,,,,,,,,,,,,,,,
210811818,8,West LA,831,12000 GOSHEN AV,,34.0472,-118.4655,,,,,,,,,,,,,,,
211418238,14,Pacific,1446,12000 PACIFIC AV,,34.005,-118.4285,,,,,,,,,,,,,,,
210806597,8,West LA,898,3100 S CANFIELD AV,,34.033,-118.394,,,,,,,,,,,,,,,
210218880,2,Rampart,211,4300 ROSEWOOD AV,,34.0814,-118.2962,,,,,,,,,,,,,,,
210815548,8,West LA,839,10200 SANTA MONICA BL,,34.06,-118.42,,,,,,,,,,,,,,,
210116811,1,Central,138,200 S SAN PEDRO ST,,34.0487,-118.242,,,,,,,,,,,,,,,
210813609,8,West LA,882,2200 SAWTELLE BL,,34.0377,-118.4408,,,,,,,,,,,,,,,
212010993,20,Olympic,2036,600 S BERENDO ST,,34.0608,-118.2941,,,,,,,,,,,,,,,
211420493,14,Pacific,1454,13400 MAXELLA AV,,33.987,-118.4407,,,,,,,,,,,,,,,
210816177,8,West LA,827,11600 MONTANA AV,,34.0562,-118.4656,,,,,,,,,,,,,,,
211910039,19,Mission,1985,8500 TOBIAS AV,,34.2248,-118.4517,,,,,,,,,,,,,,,
210107891,1,Central,156,500 WALL ST,,34.044,-118.2467,,,,,,,,,,,,,,,
211417662,14,Pacific,1446,12200 PACIFIC AV,,34.0027,-118.4328,,,,,,,,,,,,,,,
210204401,2,Rampart,204,1300 LUCILE AV,,34.0883,-118.2805,,,,,,,,,,,,,,,
210612847,6,Hollywood,639,5400 HOLLYWOOD BL,,34.1036,-118.3049,,,,,,,,,,,,,,,
211004568,10,West Valley,1089,16000 VENTURA BL,,34.1561,-118.4815,,,,,,,,,,,,,,,
211422330,14,Pacific,1443,900 VENICE BL,,33.9926,-118.4556,,,,,,,,,,,,,,,
210917173,9,Van Nuys,984,14700 VENTURA BL,,34.1517,-118.4534,,,,,,,,,,,,,,,
211410977,14,Pacific,1409,8900 VENICE BL,,34.0291,-118.3886,,,,,,,,,,,,,,,
220804929,8,West LA,858,8800 ALCOTT ST,,34.0539,-118.3844,,,,,,,,,,,,,,,
211509125,15,N Hollywood,1532,5600 ST CLAIR AV,,34.1797,-118.4014,,,,,,,,,,,,,,,
211004448,10,West Valley,1047,17400 BURBANK BL,,34.1723,-118.5115,,,,,,,,,,,,,,,
211509537,15,N Hollywood,1555,11000 HARTSOOK ST,,34.1639,-118.3735,,,,,,,,,,,,,,,
210105680,1,Central,176,700 S LOS ANGELES ST,,34.0426,-118.2513,,,,,,,,,,,,,,,
211104521,11,Northeast,1171,1200 WESTERLY TR,,34.0917,-118.2741,,,,,,,,,,,,,,,
210617430,6,Hollywood,627,2200 N GOWER ST,,34.1101,-118.3224,,,,,,,,,,,,,,,
210606897,6,Hollywood,643,LA BREA AV,MARSHFIELD WY,34.1012,-118.3451,,,,,,,,,,,,,,,
210809890,8,West LA,892,2400 BARRY AV,,34.0303,-118.4433,,,,,,,,,,,,,,,
211012731,10,West Valley,1024,VANOWEN ST,RESEDA BL,34.1939,-118.536,,,,,,,,,,,,,,,
220305140,3,Southwest,328,2600 PORTLAND ST,,34.0309,-118.2821,,,,,,,,,,,,,,,
210106064,1,Central,162,600 W 9TH ST,,34.0462,-118.2585,,,,,,,,,,,,,,,
212112449,21,Topanga,2115,21700 ROSCOE BL,,34.2197,-118.6025,,,,,,,,,,,,,,,
211411758,14,Pacific,1452,00 FLEET ST,,33.9761,-118.4637,,,,,,,,,,,,,,,
211409110,14,Pacific,1415,1400 ELKGROVE CIR,,34.0011,-118.4582,,,,,,,,,,,,,,,
210317784,3,Southwest,328,2600 PORTLAND ST,,34.0301,-118.2826,,,,,,,,,,,,,,,
210318244,3,Southwest,338,1000 W 30TH ST,,34.0274,-118.2841,,,,,,,,,,,,,,,
210709575,7,Wilshire,736,300 S CLOVERDALE AV,,34.0686,-118.3462,,,,,,,,,,,,,,,
210809178,8,West LA,881,11700 W OLYMPIC BL,,34.034,-118.4482,,,,,,,,,,,,,,,
210618520,6,Hollywood,649,1500 N HOBART BL,,34.0981,-118.3056,,,,,,,,,,,,,,,
210810102,8,West LA,827,600 S BARRINGTON AV,,34.0563,-118.4677,,,,,,,,,,,,,,,
210108776,1,Central,138,200 E 2ND ST,,34.0493,-118.2417,,,,,,,,,,,,,,,
211914641,19,Mission,1985,8500 TOBIAS AV,,34.2248,-118.4517,,,,,,,,,,,,,,,
211419904,14,Pacific,1472,300 PERSHING DR,,33.9593,-118.4479,,,,,,,,,,,,,,,
210805603,8,West LA,885,2500 PATRICIA AV,,34.0411,-118.4157,,,,,,,,,,,,,,,
210319249,3,Southwest,327,2600 ELLENDALE PL,,34.0323,-118.2888,,,,,,,,,,,,,,,
211108112,11,Northeast,1143,2200 HYPERION AV,,34.1053,-118.2785,,,,,,,,,,,,,,,
211408748,14,Pacific,1425,3100 SAWTELLE BL,,34.0209,-118.4318,,,,,,,,,,,,,,,
212006357,20,Olympic,2074,1700 S HARVARD BL,,34.0423,-118.3043,,,,,,,,,,,,,,,
210116156,1,Central,159,500 S HEWITT ST,,34.0427,-118.2353,,,,,,,,,,,,,,,
211517852,15,N Hollywood,1527,11200 ERWIN ST,,34.1831,-118.3758,,,,,,,,,,,,,,,
210812157,8,West LA,857,1100 GLENVILLE DR,,34.0557,-118.3928,,,,,,,,,,,,,,,
211409189,14,Pacific,1441,2500 PACIFIC AV,,33.9826,-118.4681,,,,,,,,,,,,,,,
210116827,1,Central,139,900 E 3RD ST,,34.0459,-118.2352,,,,,,,,,,,,,,,
210810678,8,West LA,816,400 LANDFAIR AV,,34.0673,-118.4534,,,,,,,,,,,,,,,
210812891,8,West LA,831,900 S WESTGATE AV,,34.0473,-118.4768,,,,,,,,,,,,,,,
210709119,7,Wilshire,701,500 N HAYWORTH AV,,34.0802,-118.3627,,,,,,,,,,,,,,,
211112256,11,Northeast,1163,1200 N EDGEMONT ST,,34.0934,-118.2961,,,,,,,,,,,,,,,
211417708,14,Pacific,1453,4200 REDWOOD AV,,33.9884,-118.4379,,,,,,,,,,,,,,,
211412428,14,Pacific,1456,11900 COURTLEIGH DR,,33.9962,-118.4198,,,,,,,,,,,,,,,
210806982,8,West LA,855,1400 S BENTLEY AV,,34.0509,-118.4459,,,,,,,,,,,,,,,
211015935,10,West Valley,1065,5100 YARMOUTH AV,,34.1629,-118.5202,,,,,,,,,,,,,,,
210113503,1,Central,152,7TH,FLOWER,34.0487,-118.2588,,,,,,,,,,,,,,,
211407956,14,Pacific,1413,500 BROOKS AV,,33.9943,-118.4709,,,,,,,,,,,,,,,
210320273,3,Southwest,328,700 W 28TH ST,,34.027,-118.2794,,,,,,,,,,,,,,,
211421198,14,Pacific,1415,LINCOLN BL,INDIANA,33.9993,-118.4636,,,,,,,,,,,,,,,
210109772,1,Central,164,600 S MAIN ST,,34.0448,-118.2504,,,,,,,,,,,,,,,
211420638,14,Pacific,1407,3700 DUNN DR,,34.025,-118.4012,,,,,,,,,,,,,,,
210816809,8,West LA,818,600 CHARLES E YOUNG DR,,34.0682,-118.4404,,,,,,,,,,,,,,,
220109237,1,Central,119,800 N ALAMEDA ST,,34.0561,-118.2375,,,,,,,,,,,,,,,
212014177,20,Olympic,2081,1600 S WILTON PL,,34.0417,-118.3144,,,,,,,,,,,,,,,
210815544,8,West LA,833,10900 ROCHESTER AV,,34.0561,-118.4428,,,,,,,,,,,,,,,
211906328,19,Mission,1916,ASTORIA,DRONFIELD,34.3102,-118.4402,,,,,,,,,,,,,,,
210806689,8,West LA,849,800 S WOOSTER ST,,34.0609,-118.3824,,,,,,,,,,,,,,,
211416584,14,Pacific,1444,3200 CARTER AV,,33.9868,-118.4451,,,,,,,,,,,,,,,
211004858,10,West Valley,1078,BALBOA BL,OTSEGO ST,34.163,-118.5011,,,,,,,,,,,,,,,
211416296,14,Pacific,1412,OCEAN FRONT WK,WESTMINSTER AV,33.9885,-118.4751,,,,,,,,,,,,,,,
210215777,2,Rampart,203,3900 MARATHON ST,,34.0846,-118.2868,,,,,,,,,,,,,,,
210112462,1,Central,182,1200 S HOPE ST,,34.0406,-118.2646,,,,,,,,,,,,,,,
210214795,2,Rampart,217,1600 W TEMPLE ST,,34.0727,-118.2637,,,,,,,,,,,,,,,
211916744,19,Mission,1921,15600 COBALT ST,,34.3042,-118.4727,,,,,,,,,,,,,,,
210810022,8,West LA,857,1400 S BEVERLY DR,,34.0549,-118.3954,,,,,,,,,,,,,,,
210712995,7,Wilshire,758,1200 S PLYMOUTH BL,,34.0505,-118.3295,,,,,,,,,,,,,,,
210116292,1,Central,143,400 S BROADWAY,,34.0489,-118.2499,,,,,,,,,,,,,,,
210107103,1,Central,157,500 S SAN PEDRO ST,,34.0438,-118.2441,,,,,,,,,,,,,,,
211515409,15,N Hollywood,1581,12900 MOORPARK ST,,34.1504,-118.4144,,,,,,,,,,,,,,,
210108432,1,Central,182,9TH,HOPE,34.0455,-118.2609,,,,,,,,,,,,,,,
210110481,1,Central,152,6TH,HOPE,34.0495,-118.2564,,,,,,,,,,,,,,,
210614898,6,Hollywood,632,8500 COLE CREST DR,,34.1028,-118.3767,,,,,,,,,,,,,,,
211417946,14,Pacific,1456,11800 AVON WY,,33.9978,-118.4172,,,,,,,,,,,,,,,
210312294,3,Southwest,338,1200 W 30TH ST,,34.0274,-118.29,,,,,,,,,,,,,,,
210121108,1,Central,111,700 N BROADWAY,,34.0604,-118.2393,,,,,,,,,,,,,,,
212004236,20,Olympic,2064,1100 S KINGSLEY DR,,34.0491,-118.3031,,,,,,,,,,,,,,,
211408297,14,Pacific,1406,3300 KEYSTONE AV,,34.0266,-118.4117,,,,,,,,,,,,,,,
210815673,8,West LA,838,700 LEVERING AV,,34.0645,-118.4499,,,,,,,,,,,,,,,
210113778,1,Central,133,300 W 2ND ST,,34.0524,-118.2467,,,,,,,,,,,,,,,
210614288,6,Hollywood,666,6200 LELAND WY,,0,0,,,,,,,,,,,,,,,
210811722,8,West LA,831,11900 KIOWA AV,,34.0468,-118.4678,,,,,,,,,,,,,,,
211010201,10,West Valley,1003,18500 SATICOY ST,,34.2148,-118.5404,,,,,,,,,,,,,,,
211512071,15,N Hollywood,1548,11300 CHANDLER BL,,34.1681,-118.3789,,,,,,,,,,,,,,,
211409335,14,Pacific,1453,13400 BEACH AV,,33.9901,-118.4467,,,,,,,,,,,,,,,
210817989,8,West LA,841,11900 ROCHESTER AV,,34.0436,-118.4624,,,,,,,,,,,,,,,
211415916,14,Pacific,1407,3700 JASMINE AV,,34.0221,-118.4022,,,,,,,,,,,,,,,
210109082,1,Central,164,7TH,SPRING,34.0445,-118.2523,,,,,,,,,,,,,,,
211419148,14,Pacific,1407,3800 DUNN DR,,34.0212,-118.3982,,,,,,,,,,,,,,,
212007129,20,Olympic,2005,4500 MAPLEWOOD AV,,34.0799,-118.3023,,,,,,,,,,,,,,,
210114051,1,Central,182,1100 S GRAND AV,,34.0405,-118.263,,,,,,,,,,,,,,,
210117861,1,Central,182,1200 S HOPE ST,,34.0406,-118.2646,,,,,,,,,,,,,,,
210812287,8,West LA,851,12000 IDAHO AV,,34.0395,-118.4603,,,,,,,,,,,,,,,
212014060,20,Olympic,2033,3600 WILSHIRE BL,,34.0617,-118.3087,,,,,,,,,,,,,,,
210815873,8,West LA,853,1800 BUTLER AV,,34.0408,-118.4479,,,,,,,,,,,,,,,
211415712,14,Pacific,1424,3100 S BARRINGTON AV,,34.0167,-118.4382,,,,,,,,,,,,,,,
212012717,20,Olympic,2033,800 S OXFORD AV,,34.0573,-118.3078,,,,,,,,,,,,,,,
211608262,16,Foothill,1685,8200 LANKERSHIM BL,,34.2193,-118.3878,,,,,,,,,,,,,,,
210810898,8,West LA,831,11900 MONTANA AV,,34.0473,-118.4768,,,,,,,,,,,,,,,
211107967,11,Northeast,1137,5000 MONTE VISTA ST,,34.1109,-118.2016,,,,,,,,,,,,,,,
210610240,6,Hollywood,648,HOLLYWOOD,ST ANDREWS,34.1,-118.3113,,,,,,,,,,,,,,,
210807073,8,West LA,898,8900 W 25TH ST,,34.0385,-118.3854,,,,,,,,,,,,,,,
211420203,14,Pacific,1412,00 ROSE AV,,33.9953,-118.4794,,,,,,,,,,,,,,,
210121606,1,Central,144,400 S SPRING ST,,34.0482,-118.2489,,,,,,,,,,,,,,,
210122284,1,Central,119,800 N ALAMEDA ST,,34.0561,-118.2375,,,,,,,,,,,,,,,
212015407,20,Olympic,2023,400 S KINGSLEY DR,,34.0654,-118.3028,,,,,,,,,,,,,,,
221504436,15,N Hollywood,1557,10900 HARTSOOK ST,,34.1636,-118.3681,,,,,,,,,,,,,,,
210916712,9,Van Nuys,939,13100 OXNARD ST,,34.1794,-118.4189,,,,,,,,,,,,,,,
211013085,10,West Valley,1043,18500 COLLINS ST,,34.1745,-118.5407,,,,,,,,,,,,,,,
210915211,9,Van Nuys,929,6500 WOODMAN AV,,34.1887,-118.4313,,,,,,,,,,,,,,,
211418565,14,Pacific,1454,13400 MAXELLA AV,,33.987,-118.4407,,,,,,,,,,,,,,,
211507220,15,N Hollywood,1567,RIVERSIDE DR,LANKERSHIM BL,34.1523,-118.3664,,,,,,,,,,,,,,,
212014610,20,Olympic,2011,W 3RD ST,S MANHATTAN,34.069,-118.3104,,,,,,,,,,,,,,,
210409128,4,Hollenbeck,468,3000 E 4TH ST,,34.0388,-118.1987,,,,,,,,,,,,,,,
210817931,8,West LA,836,1800 PELHAM AV,,34.0516,-118.4316,,,,,,,,,,,,,,,
211422628,14,Pacific,1458,11300 CULVER BL,,33.9998,-118.4138,,,,,,,,,,,,,,,
210109863,1,Central,182,1200 S HOPE ST,,34.0406,-118.2646,,,,,,,,,,,,,,,
210320660,3,Southwest,328,700 W 27TH ST,,34.0281,-118.2788,,,,,,,,,,,,,,,
211408655,14,Pacific,1425,3200 SAWTELLE BL,,34.0234,-118.4292,,,,,,,,,,,,,,,
210815378,8,West LA,898,2300 S CORNING ST,,34.0387,-118.3804,,,,,,,,,,,,,,,
210708957,7,Wilshire,735,600 S DUNSMUIR AV,,34.0629,-118.3483,,,,,,,,,,,,,,,
211407478,14,Pacific,1409,3700 BAGLEY AV,,34.0259,-118.3955,,,,,,,,,,,,,,,
210119865,1,Central,182,1200 S HOPE ST,,34.0406,-118.2646,,,,,,,,,,,,,,,
211412371,14,Pacific,1472,MANCHESTER AV,PERSHING DR,33.9564,-118.4424,,,,,,,,,,,,,,,
210318544,3,Southwest,325,2800 ELLENDALE PL,,34.0307,-118.2923,,,,,,,,,,,,,,,
211422772,14,Pacific,1452,00 UNION JACK ST,,33.968,-118.4575,,,,,,,,,,,,,,,
210808838,8,West LA,855,1400 CAMDEN AV,,34.0514,-118.445,,,,,,,,,,,,,,,
210815223,8,West LA,853,11500 SANTA MONICA BL,,34.0454,-118.4522,,,,,,,,,,,,,,,
211409267,14,Pacific,1441,OCEAN FRONT WK,28TH,33.9806,-118.4682,,,,,,,,,,,,,,,
220706270,7,Wilshire,732,6200 WILSHIRE BL,,34.0665,-118.3662,,,,,,,,,,,,,,,
211416867,14,Pacific,1443,900 VENICE BL,,33.9926,-118.4556,,,,,,,,,,,,,,,
211904648,19,Mission,1985,ROSCOE BL,LENNOX AV,34.2216,-118.446,,,,,,,,,,,,,,,
211404775,14,Pacific,1454,13400 MAXELLA AV,,33.987,-118.4407,,,,,,,,,,,,,,,
210317268,3,Southwest,357,1200 W 37TH PL,,34.02,-118.2944,,,,,,,,,,,,,,,
210817299,8,West LA,839,AVENUE OF THE STARS,CONSTELLATION,34.0598,-118.4169,,,,,,,,,,,,,,,
212116829,21,Topanga,2157,21000 KITTRIDGE ST,,34.1911,-118.5906,,,,,,,,,,,,,,,
211714362,17,Devonshire,1762,21100 PLUMMER ST,,34.2465,-118.5841,,,,,,,,,,,,,,,
211715928,17,Devonshire,1752,9900 LURLINE AV,,34.2536,-118.5913,,,,,,,,,,,,,,,
210807989,8,West LA,832,11800 MAYFIELD AV,,34.0493,-118.4666,,,,,,,,,,,,,,,
212016309,20,Olympic,2004,4500 OAKWOOD AV,,34.0776,-118.3054,,,,,,,,,,,,,,,
211408773,14,Pacific,1464,13000 VILLOSA PL,,33.9735,-118.4256,,,,,,,,,,,,,,,
210112266,1,Central,111,COLLEGE,SPRING,34.0637,-118.2361,,,,,,,,,,,,,,,
211407814,14,Pacific,1438,3600 KELTON AV,,34.018,-118.4134,,,,,,,,,,,,,,,
210612369,6,Hollywood,629,CANYON,TUXEDO,34.115,-118.3161,,,,,,,,,,,,,,,
211406038,14,Pacific,1456,4400 S CENTINELA AV,,33.994,-118.4248,,,,,,,,,,,,,,,
210514798,5,Harbor,564,BERTH 34,BERTH 34,33.741,-118.2838,,,,,,,,,,,,,,,
211410027,14,Pacific,1432,700 CALIFORNIA AV,,33.9934,-118.4641,,,,,,,,,,,,,,,
210609634,6,Hollywood,649,N KINGSLEY DR,HOLLYWOOD,34.1017,-118.3033,,,,,,,,,,,,,,,
211713972,17,Devonshire,1785,18300 RAYEN ST,,34.2319,-118.5324,,,,,,,,,,,,,,,
210314786,3,Southwest,325,2800 ELLENDALE PL,,34.0307,-118.2923,,,,,,,,,,,,,,,
211505488,15,N Hollywood,1548,11100 WEDDINGTON ST,,34.167,-118.3748,,,,,,,,,,,,,,,
211410406,14,Pacific,1406,3800 KEYSTONE AV,,34.0189,-118.4056,,,,,,,,,,,,,,,
210211889,2,Rampart,241,300 S RENO ST,,34.0667,-118.2843,,,,,,,,,,,,,,,
210818027,8,West LA,852,11700 SANTA MONICA BL,,34.0435,-118.4565,,,,,,,,,,,,,,,
220804779,8,West LA,855,1700 GLENDON AV,,34.0522,-118.4378,,,,,,,,,,,,,,,
210811900,8,West LA,837,10900 STRATHMORE DR,,34.0678,-118.4512,,,,,,,,,,,,,,,
210315478,3,Southwest,328,700 W 27TH ST,,34.0281,-118.2788,,,,,,,,,,,,,,,
210612802,6,Hollywood,645,HOLLYWOOD BL,HIGHLAND,34.1016,-118.3387,,,,,,,,,,,,,,,
210816354,8,West LA,833,10900 WILSHIRE BL,,34.0586,-118.4446,,,,,,,,,,,,,,,
211406816,14,Pacific,1463,13100 FOUNTAIN PARK DR,,33.9747,-118.4287,,,,,,,,,,,,,,,
210608682,6,Hollywood,622,7200 HILLSIDE AV,,34.1046,-118.3489,,,,,,,,,,,,,,,
210121034,1,Central,162,800 S HOPE ST,,34.046,-118.2595,,,,,,,,,,,,,,,
211513002,15,N Hollywood,1555,5000 KLUMP AV,,34.1608,-118.3758,,,,,,,,,,,,,,,
210806445,8,West LA,834,10600 KINNARD AV,,34.0559,-118.4322,,,,,,,,,,,,,,,
210806289,8,West LA,835,1900 MALCOLM AV,,34.0478,-118.4324,,,,,,,,,,,,,,,
211311992,13,Newton,1307,GLADYS AV,E 8TH ST,34.0359,-118.246,,,,,,,,,,,,,,,
210115250,1,Central,119,800 N ALAMEDA ST,,34.0561,-118.2375,,,,,,,,,,,,,,,
211311431,13,Newton,1371,100 W 54TH ST,,33.9933,-118.2743,,,,,,,,,,,,,,,
210716736,7,Wilshire,762,1400 STEARNS DR,,34.0519,-118.3712,,,,,,,,,,,,,,,
211516016,15,N Hollywood,1583,4100 TUJUNGA AV,,34.1451,-118.3875,,,,,,,,,,,,,,,
210109945,1,Central,156,500 WALL ST,,34.044,-118.2467,,,,,,,,,,,,,,,
210118706,1,Central,139,900 E 3RD ST,,34.0459,-118.2352,,,,,,,,,,,,,,,
210604420,6,Hollywood,644,1300 N DETROIT ST,,34.0943,-118.3452,,,,,,,,,,,,,,,
211407952,14,Pacific,1432,1600 ABBOT KINNEY BL,,33.9934,-118.46,,,,,,,,,,,,,,,
211222862,12,77th Street,1251,7700 S VICTORIA AV,,33.9691,-118.333,,,,,,,,,,,,,,,
210808577,8,West LA,882,1900 SAWTELLE BL,,34.041,-118.4437,,,,,,,,,,,,,,,
210122368,1,Central,185,1100 S HILL ST,,34.0395,-118.2604,,,,,,,,,,,,,,,
210119081,1,Central,163,700 S BROADWAY,,34.0444,-118.2541,,,,,,,,,,,,,,,
211109886,11,Northeast,1148,4800 SYCAMORE TR,,34.1023,-118.2034,,,,,,,,,,,,,,,
210609938,6,Hollywood,666,WILCOX,FOUNTAIN,34.0943,-118.331,,,,,,,,,,,,,,,
210204062,2,Rampart,256,1900 W 6TH ST,,34.0585,-118.2725,,,,,,,,,,,,,,,
210117988,1,Central,162,700 W 7TH ST,,34.048,-118.2577,,,,,,,,,,,,,,,
211416586,14,Pacific,1443,700 CRESTMOORE PL,,33.9894,-118.4561,,,,,,,,,,,,,,,
211409014,14,Pacific,1452,3100 VIA DOLCE,,33.979,-118.4621,,,,,,,,,,,,,,,
210606975,6,Hollywood,646,1300 N JUNE ST,,34.0944,-118.3342,,,,,,,,,,,,,,,
210605646,6,Hollywood,666,6100 FOUNTAIN AV,,34.0944,-118.3234,,,,,,,,,,,,,,,
210907667,9,Van Nuys,961,4900 N SEPULVEDA BL,,34.16,-118.4661,,,,,,,,,,,,,,,
210711384,7,Wilshire,702,700 N GARDNER ST,,34.0837,-118.3533,,,,,,,,,,,,,,,
212111148,21,Topanga,2134,7100 SHOUP AV,,34.1996,-118.6147,,,,,,,,,,,,,,,
210413059,4,Hollenbeck,463,CUMMINGS ST,CESAR E CHAVEZ AV,34.049,-118.2127,,,,,,,,,,,,,,,
210914886,9,Van Nuys,971,15300 VENTURA BL,,34.1564,-118.463,,,,,,,,,,,,,,,
210913180,9,Van Nuys,914,14600 GAULT ST,,34.1994,-118.453,,,,,,,,,,,,,,,
210604946,6,Hollywood,645,1700 EL CERRITO PL,,34.1015,-118.3447,,,,,,,,,,,,,,,
210918102,9,Van Nuys,909,7200 WOODMAN AV,,34.2012,-118.4312,,,,,,,,,,,,,,,
212107021,21,Topanga,2114,8100 MOORCROFT AV,,34.2167,-118.6114,,,,,,,,,,,,,,,
211419217,14,Pacific,1491,12000 VISTA DEL MAR,,33.9355,-118.4386,,,,,,,,,,,,,,,
210110474,1,Central,152,600 S FIGUEROA ST,,34.0505,-118.2588,,,,,,,,,,,,,,,
212107312,21,Topanga,2143,22800 VICTORY BL,,34.1865,-118.6238,,,,,,,,,,,,,,,
210112762,1,Central,162,7TH ST,HOPE,34.048,-118.2577,,,,,,,,,,,,,,,
211910193,19,Mission,1984,8500 WILLIS AV,,34.2247,-118.4553,,,,,,,,,,,,,,,
210318593,3,Southwest,327,1100 W 28TH ST,,34.0294,-118.2846,,,,,,,,,,,,,,,
210314884,3,Southwest,308,2300 PORTLAND ST,,34.0334,-118.2813,,,,,,,,,,,,,,,
211418791,14,Pacific,1445,12800 CASWELL AV,,33.9972,-118.4393,,,,,,,,,,,,,,,
211423710,14,Pacific,1464,12600 VILLAGE LN,,33.9779,-118.4142,,,,,,,,,,,,,,,
211413470,14,Pacific,1465,5300 MESMER AV,,33.9895,-118.4063,,,,,,,,,,,,,,,
210708064,7,Wilshire,702,900 N MARTEL AV,,34.0871,-118.3511,,,,,,,,,,,,,,,
210113019,1,Central,143,400 S SPRING ST,,34.0488,-118.25,,,,,,,,,,,,,,,
211109396,11,Northeast,1162,4500 FOUNTAIN AV,,34.0957,-118.2872,,,,,,,,,,,,,,,
211406300,14,Pacific,1464,12600 VILLAGE LN,,33.9778,-118.4145,,,,,,,,,,,,,,,
212006365,20,Olympic,2024,3700 WILSHIRE BL,,34.0636,-118.3047,,,,,,,,,,,,,,,
211407581,14,Pacific,1453,13400 BEACH AV,,33.9901,-118.4467,,,,,,,,,,,,,,,
210813721,8,West LA,851,1500 AMHERST AV,,34.0392,-118.4633,,,,,,,,,,,,,,,
